timestamp,quad_roll,quad_pitch,quad_yaw,quad_altitude,quad_temperature,u_roll,u_pitch,u_yaw,u_altitude,cmd_roll,cmd_pitch,cmd_yaw,cmd_altitude,heading,lat,lon
1615126957,1.11,0.45,320.87,-0.00,20.76,-3.60,-1.63,-0.08,-0.25,-0.00,-0.00,-0.00,-0.00,321.40,41.026,-8.4531111630142666,0.70,1.05,232.44,243.25,20.03,-5.01,-6.36,-0.00,-0.00,-0.03,0.03,-0.09,-0.00,234.49,41.026,-8.4531111630182741,0.39,0.44,131.61,242.55,21.20,-3.04,-2.95,-0.00,-0.00,-0.03,0.03,-0.09,-0.00,131.15,41.026,-8.453111
1630184559,0.58,0.71,0.57,128.29,433.54,22.20,-4.00,-3.04,-0.00,-0.00,-0.03,0.03,-0.09,-0.00,128.49,41.026,-8.453111
1630184561,0.80,0.65,128.29,433.52,22.21,-0.00,-0.00,0.00,-0.00,-0.03,0.03,-0.09,-0.00,128.29,41.026,-8.453111
1630184562,0.89,0.71,128.26,433.52,22.23,-0.00,-0.00,0.00,-0.00,-0.03,0.03,-0.09,-0.00,127.98,41.026,-8.453111
1630184564,0.96,0.77,128.21,433.50,22.23,-0.00,-0.00,0.00,-0.00,-0.03,0.03,-0.09,-0.00,127.53,41.026,-8.453111
1630184566,1.02,0.83,128.14,433.51,22.25,-0.00,-0.00,0.00,-0.00,-0.03,0.03,-0.09,-0.00,129.27,41.026,-8.453111
1630184568,1.07,0.88,128.05,433.51,22.25,-0.00,-0.00,0.00,-0.00,-0.03,0.03,-0.09,-0.00,127.73,41.026,-8.453111
1630184570,1.10,0.91,127.97,433.41,22.23,-0.00,-0.00,0.00,-0.00,-0.03,0.03,-0.09,-0.00,128.73,41.026,-8.453111
1630184571,1.12,0.92,127.89,433.50,22.23,-0.00,-0.00,0.00,-0.00,-0.03,0.03,-0.09,-0.00,129.29,41.026,-8.453111
1630184573,1.15,0.94,127.81,433.50,22.23,-0.00,-0.00,0.00,-0.00,-0.03,0.03,-0.09,-0.00,128.85,41.026,-8.453111
1630184575,1.18,0.96,127.74,433.51,22.25,-0.00,-0.00,0.00,-0.00,-0.03,0.03,-0.09,-0.00,127.61,41.026,-8.453111
1630184577,1.20,0.99,127.62,127.54,433.52,22.26,22.27,-0.00,-0.00,0.00,-0.00,-0.03,0.03,-0.09,-0.00,127.55,127.88,41.026,-8.453111
1630184579,1.20,0.99,127.50,433.48,433.55,22.28,-0.00,-0.00,0.00,-0.00,-0.03,0.03,0.03,-0.09,-0.00,-0.00,128.57,41.026,-8.453111
1630184581,1.22,1.00,127.47,433.52,22.28,-0.00,-0.00,0.00,-0.00,-0.03,0.03,-0.09,-0.00,126.63,41.026,-8.453111
1630184583,1.23,1.02,127.44,433.47,22.28,-0.00,-0.00,0.00,-0.00,-0.03,0.03,-0.09,-0.00,127.65,41.026,-8.453111
1630184584,1.24,1.03,127.39,433.47,22.28,-0.00,-0.00,0.00,-0.00,-0.03,0.03,-0.09,-0.00,127.23,41.026,-8.453111
1630184586,1.25,1.03,127.29,433.54,22.27,-0.00,-0.00,0.00,-0.00,-0.03,0.03,-0.09,-0.00,127.85,41.026,-8.453111
1630184588,1.25,1.03,127.20,433.54,22.27,-0.00,-0.00,0.00,-0.00,-0.03,0.03,-0.09,-0.00,126.92,41.026,-8.453111
1630184590,1.27,1.03,127.12,433.48,22.29,-0.00,-0.00,0.00,-0.00,-0.03,0.03,-0.09,-0.00,125.58,41.026,-8.453111
1630184592,1.26,1.04,127.04,433.50,22.29,-0.00,-0.00,0.00,-0.00,-0.03,0.03,-0.09,-0.00,126.34,41.026,-8.453111
1630184593,1.26,1.05,127.05,433.51,22.30,-0.00,-0.00,0.00,-0.00,-0.03,0.03,-0.09,-0.00,128.25,41.026,-8.453111
1630184595,1.26,1.04,127.03,433.60,22.31,-0.00,-0.00,0.00,-0.00,-0.03,0.03,-0.09,-0.00,127.26,41.026,-8.453111
1630184597,1.26,1.06,127.06,433.54,22.32,-0.00,-0.00,0.00,-0.00,-0.03,0.03,-0.09,-0.00,127.18,41.026,-8.453111
1630184599,1.26,1.06,127.09,433.54,22.32,-0.00,-0.00,0.00,-0.00,-0.03,0.03,-0.09,-0.00,125.90,41.026,-8.453111
1630184601,1.26,1.06,127.05,341.39,22.34,-0.00,-0.00,0.00,-0.00,-0.03,0.03,-0.09,-0.00,128.40,41.026,-8.453111
1630184603,1.27,1.06,126.98,341.41,22.35,-0.00,-0.00,0.00,-0.00,-0.03,-0.03,0.03,-0.09,-0.00,127.40,41.026,-8.453111
1630184604,1.27,1.06,126.98,341.42,22.36,-0.00,-0.00,0.00,-0.00,-0.03,0.03,-0.09,-0.00,126.80,41.026,-8.453111
1630184606,1.27,1.06,127.00,341.42,22.36,-0.00,-0.00,0.00,-0.00,-0.03,0.03,-0.09,-0.00,127.42,41.026,-8.453111
1630184608,1.27,1.05,127.01,341.42,22.37,-0.00,-0.00,0.00,-0.00,-0.03,0.03,-0.09,-0.00,127.11,41.026,-8.453111
1630184610,1.27,1.06,127.04,341.32,22.36,-0.00,-0.00,0.00,-0.00,-0.03,0.03,-0.09,-0.00,128.72,41.026,-8.453111
1630184612,1.27,1.06,127.00,341.45,22.36,-0.00,-0.00,0.00,-0.00,-0.03,0.03,-0.09,-0.00,127.53,41.026,-8.453111
1630184613,1.27,1.06,127.03,341.42,22.37,-0.00,-0.00,0.00,-0.00,-0.03,0.03,-0.09,-0.00,128.81,41.026,-8.453111
1630184615,1.27,1.06,127.03,341.38,22.37,-0.00,-0.00,0.00,-0.00,-0.03,0.03,-0.09,-0.00,127.42,41.026,-8.453111
1630184617,1.29,1.05,127.07,341.42,22.37,-0.00,-0.00,0.00,-0.00,-0.03,0.03,-0.09,-0.00,126.89,41.026,-8.453111
1630184619,1.30,1.06,127.08,341.44,22.37,-0.00,-0.00,0.00,-0.00,-0.03,0.03,-0.09,-0.00,126.99,41.026,-8.453111
1630184621,1.30,1.06,127.05,341.42,22.37,-0.00,-0.00,0.00,-0.00,-0.03,0.03,-0.09,-0.00,127.18,41.026,-8.453111
1630184622,1.30,1.05,126.96,341.44,22.37,-0.00,-0.00,0.00,-0.00,-0.03,0.03,-0.09,-0.00,127.82,41.026,-8.453111
1630184655,0.61,0.57,129.16,433.60,22.29,-4.09,-3.06,-0.00,-0.00,-0.03,0.03,-0.09,-0.00,130.02,41.026,-8.453111
1630184657,0.71,0.65,128.94,433.61,22.31,-4.56,-3.48,-0.00,-0.00,-0.03,0.03,-0.09,-0.00,129.20,41.026,-8.453111
1630184658,0.81,0.71,128.72,433.63,22.32,-0.00,-0.00,0.00,-0.00,-0.03,0.03,-0.09,-0.00,127.72,41.026,-8.453111
1630184660,0.88,0.77,128.52,341.50,22.35,-0.00,-0.00,0.00,-0.00,-0.03,0.03,-0.09,-0.00,128.44,41.026,-8.453111
1630184662,0.96,0.82,128.42,341.50,22.36,-0.00,-0.00,0.00,-0.00,-0.03,0.03,-0.09,-0.00,128.67,41.026,-8.453111
1630184664,1.01,0.84,128.31,341.51,22.37,-0.00,-0.00,0.00,-0.00,-0.03,0.03,-0.09,-0.00,128.03,41.026,-8.453111
1630184666,1.06,0.88,128.20,341.44,22.37,-0.00,-0.00,0.00,-0.00,-0.03,0.03,-0.09,-0.00,127.81,41.026,-8.453111
1630184667,1.10,0.90,128.08,341.41,22.35,-0.00,-0.00,0.00,-0.00,-0.03,0.03,-0.09,-0.00,126.75,41.026,-8.453111
1630184669,1.13,0.90,127.91,341.42,22.34,-0.00,-0.00,0.00,-0.00,-0.03,0.03,-0.09,-0.00,127.74,41.026,-8.453111
1630184671,1.16,0.91,127.77,341.50,22.35,-0.00,-0.00,0.00,-0.00,-0.03,0.03,-0.09,-0.00,127.91,41.026,-8.453111
1630184673,1.19,0.93,127.63,341.47,22.36,-0.00,-0.00,0.00,-0.00,-0.03,0.03,-0.09,-0.00,127.51,41.026,-8.453111
1630184675,1.21,0.95,127.59,341.54,22.37,-0.00,-0.00,0.00,-0.00,-0.03,0.03,-0.09,-0.00,128.10,41.026,-8.453111
1630184677,1.22,0.96,127.53,341.45,22.38,-0.00,-0.00,0.00,-0.00,-0.03,0.03,-0.09,-0.00,126.57,41.026,-8.453111
1630184678,1.23,0.96,127.46,341.47,22.39,-0.00,-0.00,0.00,-0.00,-0.03,0.03,-0.09,-0.00,128.95,41.026,-8.453111
1630184680,1.24,0.97,127.37,341.44,22.39,-0.00,-0.00,0.00,-0.00,-0.03,0.03,-0.09,-0.00,127.15,41.026,-8.453111
1630184682,1.26,0.99,127.27,341.44,22.39,-0.00,-0.00,0.00,-0.00,-0.03,0.03,-0.09,-0.00,127.93,41.026,-8.453111
1630184684,1.26,0.98,127.20,341.47,22.40,-0.00,-0.00,0.00,-0.00,-0.03,0.03,-0.09,-0.00,128.81,41.026,-8.453111
1630184686,1.26,0.99,127.21,341.48,22.39,-0.00,-0.00,0.00,-0.00,-0.03,0.03,-0.09,-0.00,127.67,41.026,-8.453111
1630184687,1.27,0.98,127.22,341.48,22.42,-0.00,-0.00,0.00,-0.00,-0.03,0.03,-0.09,-0.00,128.03,41.026,-8.453111
1630184689,1.26,0.99,127.25,341.48,22.42,-0.00,-0.00,0.00,-0.00,-0.03,0.03,-0.09,-0.00,127.72,41.026,-8.453111
1630184691,1.27,0.99,127.25,341.39,22.39,-0.00,-0.00,0.00,-0.00,-0.03,0.03,-0.09,-0.00,128.80,41.026,-8.453111
1630184693,1.28,1.00,127.26,341.39,22.38,-0.00,-0.00,0.00,-0.00,-0.03,0.03,-0.09,-0.00,127.33,41.026,-8.453111
1630184694,1.29,0.99,127.22,341.42,22.36,-0.00,-0.00,0.00,-0.00,-0.03,0.03,-0.09,-0.00,126.64,41.026,-8.453111
1630184696,1.30,1.00,127.23,341.41,22.35,-0.00,-0.00,0.00,-0.00,-0.03,0.03,-0.09,-0.00,128.69,41.026,-8.453111
1630184698,1.30,0.99,127.22,341.48,22.37,-0.00,-0.00,0.00,-0.00,-0.03,0.03,-0.09,-0.00,128.47,41.026,-8.453111
1630184700,1.30,1.00,127.22,341.35,22.37,-0.00,-0.00,0.00,-0.00,-0.03,0.03,-0.09,-0.00,127.49,41.026,-8.453111
1630184702,1.30,1.30,1.00,127.21,341.44,22.37,-0.00,-0.00,0.00,-0.00,-0.03,0.03,-0.09,-0.00,127.61,41.026,-8.453111
1630184704,1.29,1.01,127.19,341.35,22.37,-0.00,-0.00,0.00,-0.00,-0.03,0.03,-0.09,-0.00,126.93,41.026,-8.453111
1630184705,1.29,1.01,127.12,341.42,22.36,-0.00,-0.00,0.00,-0.00,-0.03,0.03,-0.09,-0.00,128.23,41.026,-8.453111
1630184707,1.29,1.00,127.07,341.42,22.36,-0.00,-0.00,0.00,-0.00,-0.03,0.03,-0.09,-0.00,126.96,41.026,-8.453111
1630184709,1.29,1.02,127.02,341.36,22.37,-0.00,-0.00,0.00,-0.00,-0.03,0.03,-0.09,-0.00,127.61,41.026,-8.453111
1630184711,1.29,1.03,127.02,341.42,22.36,-0.00,-0.00,0.00,-0.00,-0.03,0.03,-0.09,-0.00,127.50,41.026,-8.453111
1630184713,1.29,1.03,127.06,127.07,341.41,341.41,22.35,22.35,-0.00,-0.00,0.00,-0.00,-0.03,0.03,-0.09,-0.00,-0.00,127.68,126.78,41.026,-8.453111
1630184717,1.29,1.02,1.02,127.09,341.39,22.34,-0.00,-0.00,-0.00,-0.00,0.00,0.00,-0.00,-0.00,-0.03,-0.03,0.03,0.03,-0.09,-0.09,-0.00,127.27,41.026,-8.453111
1630184719,1.30,1.01,127.03,433.55,22.32,-0.00,-0.00,0.00,-0.00,-0.03,0.03,-0.09,-0.00,126.62,41.026,-8.453111
1630184720,1.30,1.02,126.99,341.39,22.34,-0.00,-0.00,0.00,-0.00,-0.03,0.03,-0.09,-0.00,127.29,41.026,-8.453111
1630184722,1.29,1.04,126.94,433.54,22.32,-0.00,-0.00,0.00,-0.00,-0.03,0.03,-0.09,-0.00,128.36,41.026,-8.453111
1630184726,1.30,1.05,1.04,126.98,433.52,22.31,-0.00,-0.00,0.00,-0.00,-0.03,0.03,-0.09,-0.00,127.39,41.026,-8.453111
1630184728,1.30,1.04,127.06,433.50,22.29,-0.00,-0.00,0.00,-0.00,-0.03,0.03,-0.09,-0.00,127.61,41.026,-8.453111
1630184729,1.30,1.04,127.09,433.50,22.29,-0.00,-0.00,0.00,-0.00,-0.03,0.03,-0.09,-0.00,127.71,41.026,-8.453111
1630184733,1.30,1.04,1.04,127.11,433.48,22.29,-0.00,-0.00,0.00,-0.00,-0.03,0.03,-0.09,-0.00,126.36,41.026,-8.453111
1630184734,1.29,1.03,127.10,433.54,22.27,-0.00,-0.00,0.00,-0.00,-0.03,0.03,-0.09,-0.00,127.42,41.026,-8.453111
1630184796,1.27,1.03,127.35,433.50,22.29,-7.06,-5.53,-0.00,-0.00,-0.03,0.03,-0.09,-0.00,127.63,41.026,-8.453111
1630184798,1.27,1.03,127.32,433.60,22.30,-0.00,-0.00,0.00,-0.00,-0.03,0.03,-0.09,-0.00,128.09,41.026,-8.453111
1630184800,1.28,1.04,127.27,433.60,22.30,-0.00,-0.00,0.00,-0.00,-0.03,0.03,-0.09,-0.00,128.39,41.026,-8.453111
1630184802,1.28,1.05,127.26,433.60,22.31,-0.00,-0.00,0.00,-0.00,-0.03,0.03,-0.09,-0.00,128.74,41.026,-8.453111
1630184804,1.29,1.05,127.21,433.61,22.32,-0.00,-0.00,0.00,-0.00,-0.03,0.03,-0.09,-0.00,126.71,41.026,-8.453111
1630184806,1.29,1.04,127.14,433.60,22.32,-0.00,-0.00,0.00,-0.00,-0.03,0.03,-0.09,-0.00,126.18,41.026,-8.453111
1630184807,1.30,1.04,127.07,341.48,22.34,-0.00,-0.00,0.00,-0.00,-0.03,0.03,-0.09,-0.00,127.45,41.026,-8.453111
1630184809,1.30,1.04,127.01,341.50,22.35,-0.00,-0.00,0.00,-0.00,-0.03,0.03,-0.09,-0.00,128.00,41.026,-8.453111
1630184811,1.28,1.05,126.96,341.50,22.35,-0.00,-0.00,0.00,-0.00,-0.03,0.03,-0.09,-0.00,128.18,41.026,-8.453111
1630184815,1.29,1.30,1.04,1.04,127.00,341.42,22.36,-0.00,-0.00,0.00,-0.00,-0.03,0.03,-0.09,-0.00,127.58,41.026,-8.453111
1630184816,1.29,1.03,127.05,341.42,22.37,-0.00,-0.00,0.00,-0.00,-0.03,0.03,-0.09,-0.00,127.38,41.026,-8.453111
1630184818,1.29,1.04,127.05,127.08,341.51,22.37,22.37,-0.00,-0.00,0.00,-0.00,-0.03,0.03,-0.09,-0.00,129.75,127.72,41.026,-8.453111
1630184819,1.30,1.05,127.08,341.44,22.37,-0.00,-0.00,0.00,-0.00,-0.03,0.03,-0.09,-0.00,127.42,41.026,-8.453111
1630184821,1.29,1.05,127.09,341.48,22.37,-0.00,-0.00,0.00,-0.00,-0.03,0.03,-0.09,-0.00,127.11,41.026,-8.453111
1630184823,1.28,1.04,127.07,341.44,22.37,-0.00,-0.00,0.00,-0.00,-0.03,0.03,-0.09,-0.00,128.87,41.026,-8.453111
1630184825,1.27,1.04,127.03,341.51,22.37,-0.00,-0.00,0.00,-0.00,-0.03,0.03,-0.09,-0.00,126.49,41.026,-8.453111
1630184827,1.26,1.04,126.97,341.54,22.37,-0.00,-0.00,0.00,-0.00,-0.03,0.03,-0.09,-0.00,127.01,41.026,-8.453111
1630184828,1.27,1.03,126.95,341.44,22.36,-0.00,-0.00,0.00,-0.00,-0.03,0.03,-0.09,-0.00,127.37,41.026,-8.453111
1630184830,1.27,1.04,126.92,341.51,22.37,-0.00,-0.00,0.00,-0.00,-0.03,0.03,-0.09,-0.00,128.60,41.026,-8.453111
1630184832,1.27,1.04,126.98,341.45,22.36,-0.00,-0.00,0.00,-0.00,-0.03,0.03,-0.09,-0.00,127.30,41.026,-8.453111
1630184834,1.27,1.05,127.03,341.51,22.37,-0.00,-0.00,0.00,-0.00,-0.03,0.03,-0.09,-0.00,127.19,41.026,-8.453111
1630184836,1.28,1.04,127.06,341.54,22.39,-0.00,-0.00,0.00,-0.00,-0.03,0.03,-0.09,-0.00,128.82,41.026,-8.453111
1630184837,1.29,1.03,127.08,341.55,22.39,-0.00,-0.00,0.00,-0.00,-0.03,0.03,-0.09,-0.00,128.11,41.026,-8.453111
1630184839,1.31,1.03,127.02,341.47,22.40,-0.00,-0.00,0.00,-0.00,-0.03,0.03,-0.09,-0.00,126.08,41.026,-8.453111
1630184841,1.31,1.03,126.97,341.52,22.40,-0.00,-0.00,0.00,-0.00,-0.03,0.03,-0.09,-0.00,128.14,41.026,-8.453111
1630184843,1.31,1.03,126.98,341.57,22.42,-0.00,-0.00,0.00,-0.00,-0.03,0.03,-0.09,-0.00,126.86,41.026,-8.453111
1630184845,1.32,1.04,127.03,341.57,22.42,-0.00,-0.00,0.00,-0.00,-0.03,0.03,-0.09,-0.00,128.83,41.026,-8.453111
1630184846,1.32,1.03,127.04,341.48,22.42,-0.00,-0.00,0.00,-0.00,-0.03,0.03,-0.09,-0.00,127.89,41.026,-8.453111
1630184848,1.33,1.04,127.07,341.57,22.42,-0.00,-0.00,0.00,-0.00,-0.03,0.03,-0.09,-0.00,127.55,41.026,-8.453111
1630184850,1.31,1.04,127.03,341.48,22.39,-0.00,-0.00,0.00,-0.00,-0.03,0.03,-0.09,-0.00,127.30,41.026,-8.453111
1630184852,1.32,1.05,127.04,341.47,22.38,-0.00,-0.00,0.00,-0.00,-0.03,0.03,-0.09,-0.00,128.53,41.026,-8.453111
1630184854,1.31,1.05,127.04,341.54,22.39,-0.00,-0.00,0.00,-0.00,-0.03,0.03,-0.09,-0.00,127.25,41.026,-8.453111
1630184855,1.31,1.05,127.05,341.55,22.39,-0.00,-0.00,0.00,-0.00,-0.03,0.03,-0.09,-0.00,127.39,41.026,-8.453111
1630184857,1.30,1.04,127.03,341.47,22.38,-0.00,-0.00,0.00,-0.00,-0.03,0.03,-0.09,-0.00,127.11,41.026,-8.453111
1630184859,1.30,1.04,126.98,341.45,22.39,-0.00,-0.00,0.00,-0.00,-0.03,0.03,-0.09,-0.00,127.71,41.026,-8.453111
1630184861,1.30,1.03,126.93,341.54,22.40,-0.00,-0.00,0.00,-0.00,-0.03,0.03,-0.09,-0.00,127.44,41.026,-8.453111
1630184863,1.30,1.03,126.98,341.51,22.40,-0.00,-0.00,0.00,-0.00,-0.03,0.03,-0.09,-0.00,127.90,41.026,-8.453111
1630184864,1.29,1.01,127.03,341.57,22.42,-0.00,-0.00,0.00,-0.00,-0.03,0.03,-0.09,-0.00,128.24,41.026,-8.453111
1630184866,1.29,1.01,127.08,341.48,341.42,22.40,-0.00,-0.00,0.00,-0.00,-0.03,0.03,-0.09,-0.00,128.90,41.026,-8.453111
1630184868,1.29,1.01,127.08,341.54,22.38,-0.00,-0.00,0.00,-0.00,-0.03,0.03,-0.09,-0.00,128.38,41.026,-8.453111
1630184870,1.29,1.00,127.04,341.54,22.37,-0.00,-0.00,0.00,-0.00,-0.03,0.03,-0.09,-0.00,127.54,41.026,-8.453111
1630184872,1.30,1.00,127.06,341.50,22.37,-0.00,-0.00,0.00,-0.00,-0.03,0.03,-0.09,-0.00,127.11,41.026,-8.453111
1630184873,1.31,1.01,127.08,341.51,22.37,-0.00,-0.00,0.00,-0.00,-0.03,0.03,-0.09,-0.00,128.59,41.026,-8.453111
1630184875,1.30,1.00,127.11,341.54,22.37,-0.00,-0.00,0.00,-0.00,-0.03,0.03,-0.09,-0.00,126.61,41.026,-8.453111
1630184877,1.31,1.00,127.11,341.48,22.37,-0.00,-0.00,0.00,-0.00,-0.03,-0.03,0.03,0.03,-0.09,-0.00,-0.00,126.91,41.026,-8.453111
1630184879,1.31,1.01,127.05,341.54,22.37,-0.00,-0.00,0.00,-0.00,-0.03,0.03,-0.09,-0.00,127.06,41.026,-8.453111
1630184881,1.31,1.02,127.00,341.54,22.38,-0.00,-0.00,0.00,-0.00,-0.03,0.03,-0.09,-0.00,127.77,41.026,-8.453111
1630184918,0.97,0.77,128.38,433.57,22.22,-5.76,-4.37,-0.00,-0.00,-0.03,0.03,-0.09,-0.00,127.78,41.026,-8.453111
1630184920,1.03,0.81,128.19,433.60,22.25,-5.99,-4.56,-0.00,-0.00,-0.03,0.03,-0.09,-0.00,127.36,41.026,-8.453111
1630184922,1.08,0.84,127.98,433.61,22.26,-0.00,-0.00,0.00,-0.00,-0.03,0.03,-0.09,-0.00,128.11,41.026,-8.453111
1630184923,1.13,0.88,127.92,433.54,22.27,-0.00,-0.00,0.00,-0.00,-0.03,0.03,-0.09,-0.00,127.63,41.026,-8.453111
1630184925,1.15,0.90,127.86,433.64,22.27,-0.00,-0.00,0.00,-0.00,-0.03,0.03,-0.09,-0.00,127.88,41.026,-8.453111
1630184927,1.17,0.93,127.80,433.64,22.28,-0.00,-0.00,0.00,-0.00,-0.03,0.03,-0.09,-0.00,128.60,41.026,-8.453111
1630184929,1.19,0.95,127.75,433.67,22.29,-0.00,-0.00,0.00,-0.00,-0.03,0.03,-0.09,-0.00,127.91,41.026,-8.453111
1630184931,1.21,0.97,127.67,433.67,22.29,-0.00,-0.00,0.00,-0.00,-0.03,0.03,-0.09,-0.00,127.57,41.026,-8.453111
1630184932,1.22,0.99,127.60,433.70,22.30,-0.00,-0.00,0.00,-0.00,-0.03,0.03,-0.09,-0.00,127.18,41.026,-8.453111
1630184934,1.24,1.01,127.55,433.70,22.31,-0.00,-0.00,0.00,-0.00,-0.03,0.03,-0.09,-0.00,127.99,41.026,-8.453111
1630184936,1.26,1.02,127.50,433.72,22.32,-0.00,-0.00,0.00,-0.00,-0.03,0.03,-0.09,-0.00,128.15,41.026,-8.453111
1630184938,1.27,1.02,127.45,433.73,22.34,-0.00,-0.00,0.00,-0.00,-0.03,0.03,-0.09,-0.00,127.26,41.026,-8.453111
1630184940,1.30,1.02,127.34,341.57,22.35,-0.00,-0.00,0.00,-0.00,-0.03,0.03,-0.09,-0.00,126.61,41.026,-8.453111
1630184941,1.30,1.04,127.26,341.57,22.35,-0.00,-0.00,0.00,-0.00,-0.03,0.03,-0.09,-0.00,126.06,41.026,-8.453111
1630184943,1.31,1.04,127.20,341.58,22.36,-0.00,-0.00,0.00,-0.00,-0.03,0.03,-0.09,-0.00,128.23,41.026,-8.453111
1630184945,1.31,1.04,127.23,341.51,22.37,-0.00,-0.00,0.00,-0.00,-0.03,0.03,-0.09,-0.00,127.57,41.026,-8.453111
1630184947,1.30,1.04,127.22,341.60,22.37,-0.00,-0.00,0.00,-0.00,-0.03,0.03,-0.09,-0.00,127.43,41.026,-8.453111
1630184949,1.30,1.04,127.18,341.54,22.37,-0.00,-0.00,0.00,-0.00,-0.03,0.03,-0.09,-0.00,128.20,41.026,-8.453111
1630184950,1.30,1.04,127.18,341.60,22.38,-0.00,-0.00,0.00,-0.00,-0.03,0.03,-0.09,-0.00,127.59,41.026,-8.453111
1630184953,1.31,1.05,127.18,341.60,22.39,-0.00,-0.00,0.00,-0.00,-0.03,0.03,-0.09,-0.00,126.88,41.026,-8.453111
1630184954,1.31,1.05,127.18,341.57,22.39,-0.00,-0.00,0.00,-0.00,-0.03,0.03,-0.09,-0.00,127.10,41.026,-8.453111
1630184956,1.32,1.05,127.16,341.57,22.40,-0.00,-0.00,0.00,-0.00,-0.03,0.03,-0.09,-0.00,126.27,41.026,-8.453111
1630184958,1.31,1.04,127.09,341.55,22.39,-0.00,-0.00,0.00,-0.00,-0.03,0.03,-0.09,-0.00,127.30,41.026,-8.453111
1630184959,1.31,1.05,127.03,341.57,22.39,-0.00,-0.00,0.00,-0.00,-0.03,0.03,-0.09,-0.00,127.04,41.026,-8.453111
1630184961,1.31,1.04,127.01,341.63,22.38,-0.00,-0.00,0.00,-0.00,-0.03,0.03,-0.09,-0.00,127.14,41.026,-8.453111
1630184963,1.30,1.04,127.03,341.54,22.37,-0.00,-0.00,0.00,-0.00,-0.03,0.03,-0.09,-0.00,127.07,41.026,-8.453111
1630184965,1.29,1.05,127.05,341.51,22.36,-0.00,-0.00,0.00,-0.00,-0.03,0.03,-0.09,-0.00,127.79,41.026,-8.453111
1630184967,1.29,1.04,127.07,341.51,22.37,-0.00,-0.00,0.00,-0.00,-0.03,0.03,-0.09,-0.00,127.33,41.026,-8.453111
1630184997,0.63,0.47,129.10,433.61,22.20,-4.18,-3.04,-0.00,-0.00,-0.03,0.03,-0.09,-0.00,128.26,41.026,-8.453111
1630184998,0.74,0.57,128.93,433.57,22.22,-4.68,-3.44,-0.00,-0.00,-0.03,0.03,-0.09,-0.00,128.41,41.026,-8.453111
1630185000,0.84,0.63,128.80,433.67,22.25,-5.13,-3.75,-0.00,-0.00,-0.03,0.03,-0.09,-0.00,128.23,41.026,-8.453111
1630185002,0.91,0.70,128.64,433.54,22.26,-0.00,-0.00,0.00,-0.00,-0.03,0.03,-0.09,-0.00,128.44,41.026,-8.453111
1630185004,0.98,0.75,128.44,433.66,22.27,-0.00,-0.00,0.00,-0.00,-0.03,0.03,-0.09,-0.00,128.12,41.026,-8.453111
1630185006,1.02,0.79,128.29,433.67,22.29,-0.00,-0.00,0.00,-0.00,-0.03,0.03,-0.09,-0.00,128.22,41.026,-8.453111
1630185007,1.06,0.83,128.19,433.70,22.30,-0.00,-0.00,0.00,-0.00,-0.03,0.03,-0.09,-0.00,126.56,41.026,-8.453111
1630185009,1.10,0.87,128.06,433.70,22.31,-0.00,-0.00,0.00,-0.00,-0.03,0.03,-0.09,-0.00,127.60,41.026,-8.453111
1630185011,1.13,0.89,127.94,433.66,22.31,-0.00,-0.00,0.00,-0.00,-0.03,0.03,-0.09,-0.00,129.11,41.026,-8.453111
1630185013,1.17,0.91,127.79,433.66,22.32,-0.00,-0.00,0.00,-0.00,-0.03,0.03,-0.09,-0.00,128.58,41.026,-8.453111
1630185015,1.19,0.93,127.64,341.57,22.34,-0.00,-0.00,0.00,-0.00,-0.03,0.03,-0.09,-0.00,127.39,41.026,-8.453111
1630185016,1.21,0.95,127.52,341.50,22.35,-0.00,-0.00,0.00,-0.00,-0.03,0.03,-0.09,-0.00,127.30,41.026,-8.453111
1630185018,1.23,0.97,127.51,341.54,22.36,-0.00,-0.00,0.00,-0.00,-0.03,0.03,-0.09,-0.00,128.68,41.026,-8.453111
1630185020,1.25,0.98,127.49,341.60,22.37,-0.00,-0.00,0.00,-0.00,-0.03,0.03,-0.09,-0.00,127.38,41.026,-8.453111
1630185023,1.27,0.98,127.47,341.61,22.37,-0.00,-0.00,0.00,-0.00,-0.03,0.03,-0.09,-0.00,127.17,41.026,-8.453111
1630185024,1.27,0.99,127.43,341.51,22.37,-0.00,-0.00,0.00,-0.00,-0.03,0.03,-0.09,-0.00,126.08,41.026,-8.453111
1630185025,1.28,1.00,127.36,341.58,22.36,-0.00,-0.00,0.00,-0.00,-0.03,0.03,-0.09,-0.00,128.48,41.026,-8.453111
1630185027,1.30,1.01,127.34,341.60,22.37,-0.00,-0.00,0.00,-0.00,-0.03,0.03,-0.09,-0.00,128.53,41.026,-8.453111
1630185029,1.29,1.02,127.30,341.54,22.37,-0.00,-0.00,0.00,-0.00,-0.03,0.03,-0.09,-0.00,127.43,41.026,-8.453111
1630185031,1.29,1.02,127.23,341.54,22.37,-0.00,-0.00,0.00,-0.00,-0.03,0.03,-0.09,-0.00,127.63,41.026,-8.453111
1630185033,1.29,1.03,127.24,341.54,22.38,-0.00,-0.00,0.00,-0.00,-0.03,0.03,-0.09,-0.00,128.59,41.026,-8.453111
1630185034,1.30,1.03,127.25,341.54,22.38,-0.00,-0.00,0.00,-0.00,-0.03,0.03,-0.09,-0.00,127.57,41.026,-8.453111
1630185036,1.29,1.03,127.26,341.54,22.37,-0.00,-0.00,0.00,-0.00,-0.03,0.03,-0.09,-0.00,127.31,41.026,-8.453111
1630185038,1.29,1.02,127.24,341.60,22.37,-0.00,-0.00,0.00,-0.00,-0.03,0.03,-0.09,-0.00,126.63,41.026,-8.453111
1630185040,1.29,1.02,127.17,341.61,22.37,-0.00,-0.00,0.00,-0.00,-0.03,0.03,-0.09,-0.00,128.25,41.026,-8.453111
1630185042,1.30,1.02,127.11,341.54,22.37,-0.00,-0.00,0.00,-0.00,-0.03,0.03,-0.09,-0.00,126.89,41.026,-8.453111
1630185044,1.30,1.04,127.11,341.61,22.37,-0.00,-0.00,0.00,-0.00,-0.03,0.03,-0.09,-0.00,127.58,41.026,-8.453111
1630185045,1.30,1.04,127.13,341.54,22.37,-0.00,-0.00,0.00,-0.00,-0.03,0.03,-0.09,-0.00,128.51,41.026,-8.453111
1630185047,1.30,1.04,127.14,341.54,22.37,-0.00,-0.00,0.00,-0.00,-0.03,0.03,-0.09,-0.00,128.50,41.026,-8.453111
1630185083,0.91,0.71,128.70,433.67,22.25,-5.11,-4.08,-0.00,-0.00,-0.03,0.03,-0.09,-0.00,127.79,41.026,-8.453111
1630185085,0.97,0.76,128.48,433.64,22.27,-5.46,-4.28,-0.00,-0.00,-0.03,0.03,-0.09,-0.00,128.48,41.026,-8.453111
1630185087,1.03,0.80,128.36,433.61,22.26,-5.73,-0.00,-0.00,-0.00,-0.03,0.03,-0.09,-0.00,128.05,41.026,-8.453111
1630185089,1.08,0.84,128.22,433.70,22.26,-0.00,-0.00,0.00,-0.00,-0.03,0.03,-0.09,-0.00,127.29,41.026,-8.453111
1630185090,1.12,0.86,128.08,433.64,22.27,-0.00,-0.00,0.00,-0.00,-0.03,0.03,-0.09,-0.00,128.84,41.026,-8.453111
1630185092,1.16,0.88,127.98,433.51,22.25,-0.00,-0.00,0.00,-0.00,-0.03,0.03,-0.09,-0.00,128.70,41.026,-8.453111
1630185094,1.17,0.90,127.90,433.67,22.25,-0.00,-0.00,0.00,-0.00,-0.03,0.03,-0.09,-0.00,127.18,41.026,-8.453111
1630185096,1.18,0.92,127.79,433.67,22.25,-0.00,-0.00,0.00,-0.00,-0.03,0.03,-0.09,-0.00,127.51,41.026,-8.453111
1630185098,1.21,0.92,127.74,433.58,22.23,-0.00,-0.00,0.00,-0.00,-0.03,0.03,-0.09,-0.00,126.06,41.026,-8.453111
1630185099,1.23,0.93,127.66,433.58,22.23,-0.00,-0.00,0.00,-0.00,-0.03,0.03,-0.09,-0.00,128.88,41.026,-8.453111
1630185101,1.24,0.94,127.61,433.64,22.21,-0.00,-0.00,0.00,-0.00,-0.03,0.03,-0.09,-0.00,127.20,41.026,-8.453111
1630185103,1.26,0.95,127.54,433.64,22.21,-0.00,-0.00,0.00,-0.00,-0.03,0.03,-0.09,-0.00,126.74,41.026,-8.453111
1630185105,1.26,0.98,127.51,433.60,22.20,-0.00,-0.00,0.00,-0.00,-0.03,0.03,-0.09,-0.00,127.13,41.026,-8.453111
1630185107,1.27,0.99,127.42,433.60,22.20,-0.00,-0.00,0.00,-0.00,-0.03,0.03,-0.09,-0.00,128.32,41.026,-8.453111
1630185108,1.28,0.99,127.32,433.63,22.20,-0.00,-0.00,0.00,-0.00,-0.03,0.03,-0.09,-0.00,126.80,41.026,-8.453111
1630185110,1.28,0.98,127.23,433.61,22.20,-0.00,-0.00,0.00,-0.00,-0.03,0.03,-0.09,-0.00,126.42,41.026,-8.453111
1630185112,1.28,0.98,127.17,433.61,22.20,-0.00,-0.00,0.00,-0.00,-0.03,0.03,-0.09,-0.00,128.93,41.026,-8.453111
1630185114,1.28,0.98,127.20,433.54,22.20,-0.00,-0.00,0.00,-0.00,-0.03,0.03,-0.09,-0.00,128.59,41.026,-8.453111
1630185116,1.30,0.98,127.20,433.51,22.19,-0.00,-0.00,0.00,-0.00,-0.03,0.03,-0.09,-0.00,126.95,41.026,-8.453111
1630185117,1.30,0.97,127.22,242.58,22.18,-0.00,-0.00,0.00,-0.00,-0.03,0.03,-0.09,-0.00,127.03,41.026,-8.453111
1630185119,1.29,0.98,127.23,242.61,22.17,-0.00,-0.00,0.00,-0.00,-0.03,0.03,-0.09,-0.00,127.22,41.026,-8.453111
1630185121,1.29,0.99,127.21,433.66,22.19,-0.00,-0.00,-0.00,0.00,0.00,-0.00,-0.03,0.03,-0.09,-0.00,127.98,41.026,-8.453111
1630185123,1.27,0.99,127.21,433.57,22.20,-0.00,-0.00,0.00,-0.00,-0.03,0.03,-0.09,-0.00,127.79,41.026,-8.453111
1630185125,1.28,1.00,127.20,433.61,22.20,-0.00,-0.00,0.00,-0.00,-0.03,0.03,-0.09,-0.00,127.78,41.026,-8.453111
1630185127,1.29,0.99,127.20,433.73,22.20,-0.00,-0.00,0.00,-0.00,-0.03,0.03,-0.09,-0.00,126.71,41.026,-8.453111
1630185128,1.29,1.00,127.13,433.64,22.21,-0.00,-0.00,0.00,-0.00,-0.03,0.03,-0.09,-0.00,128.15,41.026,-8.453111
1630185130,1.29,0.99,127.06,433.67,22.22,-0.00,-0.00,0.00,-0.00,-0.03,0.03,-0.09,-0.00,126.78,41.026,-8.453111
1630185132,1.28,0.98,127.00,433.57,22.20,-0.00,-0.00,0.00,-0.00,-0.03,0.03,-0.09,-0.00,127.47,41.026,-8.453111
1630185134,1.28,0.97,127.05,433.73,22.20,-0.00,-0.00,0.00,-0.00,-0.03,0.03,-0.09,-0.00,127.65,41.026,-8.453111
1630185136,1.28,0.97,127.07,433.64,22.20,-0.00,-0.00,0.00,-0.00,-0.03,0.03,-0.09,-0.00,127.27,41.026,-8.453111
1630185137,1.29,0.97,127.06,433.58,22.20,-0.00,-0.00,0.00,-0.00,-0.03,0.03,-0.09,-0.00,127.60,41.026,-8.453111
1630185139,1.29,0.98,127.02,242.58,22.19,-0.00,-0.00,0.00,-0.00,-0.03,0.03,-0.09,-0.00,127.76,41.026,-8.453111
1630185141,1.30,0.97,127.02,242.57,22.17,-0.00,-0.00,0.00,-0.00,-0.03,0.03,-0.09,-0.00,128.11,41.026,-8.453111
1630185143,1.31,0.97,127.05,242.66,22.18,-0.00,-0.00,0.00,-0.00,-0.03,0.03,-0.09,-0.00,128.32,41.026,-8.453111
1630185145,1.31,0.98,127.04,433.60,22.20,-0.00,-0.00,0.00,-0.00,-0.03,0.03,-0.09,-0.00,127.72,41.026,-8.453111
1630185146,1.31,0.98,127.05,433.64,22.20,-0.00,-0.00,0.00,-0.00,-0.03,0.03,-0.09,-0.00,127.22,41.026,-8.453111
1630185148,1.33,0.98,127.06,433.64,22.21,-0.00,-0.00,0.00,-0.00,-0.03,0.03,-0.09,-0.00,126.99,41.026,-8.453111
1630185150,1.33,0.98,127.08,433.70,22.22,-0.00,-0.00,0.00,-0.00,-0.03,0.03,-0.09,-0.00,128.62,41.026,-8.453111
1630185152,1.33,0.99,127.12,433.67,22.23,-0.00,-0.00,0.00,-0.00,-0.03,0.03,-0.09,-0.00,127.07,41.026,-8.453111
1630185154,1.33,1.00,127.13,433.57,22.23,-0.00,-0.00,0.00,-0.00,-0.03,0.03,-0.09,-0.00,126.81,41.026,-8.453111
1630185155,1.32,1.01,127.15,433.67,22.22,-0.00,-0.00,0.00,-0.00,-0.03,0.03,-0.09,-0.00,126.89,41.026,-8.453111
1630185157,1.31,1.00,127.10,433.64,22.21,-0.00,-0.00,0.00,-0.00,-0.03,0.03,-0.09,-0.00,127.77,41.026,-8.453111
1630185159,1.31,1.00,127.03,433.64,22.21,-0.00,-0.00,0.00,-0.00,-0.03,0.03,-0.09,-0.00,127.86,41.026,-8.453111
1630185161,1.31,1.00,127.01,433.67,22.23,-0.00,-0.00,0.00,-0.00,-0.03,0.03,-0.09,-0.00,128.06,41.026,-8.453111
1630185163,1.32,1.00,127.06,433.58,22.23,-0.00,-0.00,0.00,-0.00,-0.03,0.03,-0.09,-0.00,127.58,41.026,-8.453111
1630185164,1.33,1.01,127.06,433.64,22.21,-0.00,-0.00,0.00,-0.00,-0.03,0.03,-0.09,-0.00,128.70,41.026,-8.453111
1630185166,1.34,1.02,127.08,433.70,22.21,-0.00,-0.00,0.00,-0.00,-0.03,0.03,-0.09,-0.00,126.67,41.026,-8.453111
1630185168,1.33,1.02,127.10,433.76,22.23,-0.00,-0.00,0.00,-0.00,-0.03,0.03,-0.09,-0.00,126.71,41.026,-8.453111
1630185170,1.33,1.02,127.11,433.70,22.25,-0.00,-0.00,0.00,-0.00,-0.03,0.03,-0.09,-0.00,127.22,41.026,-8.453111
1630185172,1.33,1.02,127.11,433.60,22.23,-0.00,-0.00,0.00,-0.00,-0.03,0.03,-0.09,-0.00,128.23,41.026,-8.453111
1630185173,1.32,1.04,127.02,433.70,22.22,-0.00,-0.00,0.00,-0.00,-0.03,0.03,-0.09,-0.00,127.49,41.026,-8.453111
1630185175,1.32,1.05,126.97,433.67,22.22,-0.00,-0.00,0.00,-0.00,-0.03,0.03,-0.09,-0.00,126.86,41.026,-8.453111
1630185177,1.32,1.04,126.94,433.76,22.23,-0.00,-0.00,0.00,-0.00,-0.03,0.03,-0.09,-0.00,127.24,41.026,-8.453111
1630185179,1.33,1.04,126.99,433.75,22.25,-0.00,-0.00,0.00,-0.00,-0.03,0.03,-0.09,-0.00,128.55,41.026,-8.453111
1630185181,1.34,1.04,127.01,433.70,22.26,-0.00,-0.00,0.00,-0.00,-0.03,0.03,-0.09,-0.00,126.90,41.026,-8.453111
1630185182,1.34,1.04,127.01,433.61,22.26,-0.00,-0.00,0.00,-0.00,-0.03,0.03,-0.09,-0.00,127.68,41.026,-8.453111
1630185184,1.35,1.04,126.95,433.67,22.23,-0.00,-0.00,0.00,-0.00,-0.03,0.03,-0.09,-0.00,128.29,41.026,-8.453111
1630185186,1.34,1.03,126.89,433.67,22.23,-0.00,-0.00,0.00,-0.00,-0.03,0.03,-0.09,-0.00,128.05,41.026,-8.453111
1630185188,1.34,1.03,126.86,433.73,22.22,-0.00,-0.00,0.00,-0.00,-0.03,0.03,-0.09,-0.00,127.25,41.026,-8.453111
1630185190,1.34,1.04,126.84,433.67,22.22,-0.00,-0.00,0.00,-0.00,-0.03,0.03,-0.09,-0.00,126.44,41.026,-8.453111
1630185191,1.33,1.03,126.87,433.64,22.21,-0.00,-0.00,0.00,-0.00,-0.03,0.03,-0.09,-0.00,127.83,41.026,-8.453111
1630185194,1.33,1.03,126.92,433.64,22.21,-0.00,-0.00,0.00,-0.00,-0.03,0.03,-0.09,-0.00,127.22,41.026,-8.453111
1630185195,1.32,1.04,126.91,433.67,22.21,-0.00,-0.00,0.00,-0.00,-0.03,0.03,-0.09,-0.00,128.19,41.026,-8.453111
1630185197,1.33,1.03,126.95,433.73,22.21,-0.00,-0.00,0.00,-0.00,-0.03,0.03,-0.09,-0.00,126.30,41.026,-8.453111
1630185199,1.33,1.01,126.99,433.76,22.22,-0.00,-0.00,0.00,-0.00,-0.03,0.03,-0.09,-0.00,127.00,41.026,-8.453111
1630185200,1.33,1.00,127.02,433.67,22.22,-0.00,-0.00,0.00,-0.00,-0.03,0.03,-0.09,-0.00,127.72,41.026,-8.453111
1630185202,1.33,1.01,127.03,433.73,22.20,-0.00,-0.00,0.00,-0.00,-0.03,0.03,-0.09,-0.00,127.69,41.026,-8.453111
1630185204,1.33,1.00,126.98,433.70,22.19,-0.00,-0.00,0.00,-0.00,-0.03,0.03,-0.09,-0.00,127.22,41.026,-8.453111
1630185206,1.33,1.01,126.92,433.70,22.19,-0.00,-0.00,0.00,-0.00,-0.03,0.03,-0.09,-0.00,127.58,41.026,-8.453111
1630185208,1.34,1.01,126.96,242.66,22.18,-0.00,-0.00,0.00,-0.00,-0.03,0.03,-0.09,-0.00,128.56,41.026,-8.453111
1630185209,1.33,1.01,126.99,242.75,22.18,-0.00,-0.00,0.00,-0.00,-0.03,0.03,-0.09,-0.00,127.05,41.026,-8.453111
1630185211,1.33,1.02,126.97,433.73,22.20,-0.00,-0.00,0.00,-0.00,-0.03,0.03,-0.09,-0.00,127.02,41.026,-8.453111
1630185213,1.33,1.02,126.93,433.73,22.21,-0.00,-0.00,0.00,-0.00,-0.03,0.03,-0.09,-0.00,126.71,41.026,-8.453111
1630185215,1.34,1.03,126.89,433.76,22.22,-0.00,-0.00,0.00,-0.00,-0.03,0.03,-0.09,-0.00,128.35,41.026,-8.453111
1630185217,1.33,1.03,126.87,433.76,22.22,-0.00,-0.00,0.00,-0.00,-0.03,0.03,-0.09,-0.00,127.55,41.026,-8.453111
1630185218,1.34,1.02,126.94,433.76,22.22,-0.00,-0.00,0.00,-0.00,-0.03,0.03,-0.09,-0.00,127.26,41.026,-8.453111
1630185220,1.35,1.01,127.00,433.76,22.22,-0.00,-0.00,0.00,-0.00,-0.03,0.03,-0.09,-0.00,127.24,41.026,-8.453111
1630185222,1.34,1.01,127.02,433.73,22.21,-0.00,-0.00,0.00,-0.00,-0.03,0.03,-0.09,-0.00,127.49,41.026,-8.453111
1630185224,1.35,1.01,127.03,433.73,22.20,-0.00,-0.00,0.00,-0.00,-0.03,0.03,-0.09,-0.00,127.71,41.026,-8.453111
1630185226,1.35,1.01,127.03,433.73,22.20,-0.00,-0.00,0.00,-0.00,-0.03,0.03,-0.09,-0.00,127.39,41.026,-8.453111
1630185227,1.36,1.02,127.06,433.80,22.20,-0.00,-0.00,0.00,-0.00,-0.03,0.03,-0.09,-0.00,127.20,41.026,-8.453111
1630185229,1.34,1.02,127.07,433.80,22.20,-0.00,-0.00,0.00,-0.00,-0.03,0.03,-0.09,-0.00,126.85,41.026,-8.453111
1630185231,1.32,1.01,127.05,433.73,22.19,-0.00,-0.00,0.00,-0.00,-0.03,0.03,-0.09,-0.00,128.39,41.026,-8.453111
1630185233,1.32,1.01,127.01,433.79,22.19,-0.00,-0.00,0.00,-0.00,-0.03,0.03,-0.09,-0.00,127.42,41.026,-8.453111
1630185235,1.32,1.00,127.03,433.79,22.19,-0.00,-0.00,0.00,-0.00,-0.03,0.03,-0.09,-0.00,127.29,41.026,-8.453111
1630185236,1.31,0.99,127.07,242.75,22.19,-0.00,-0.00,0.00,-0.00,-0.03,0.03,-0.09,-0.00,127.94,41.026,-8.453111
1630185238,1.31,0.98,127.12,242.69,22.18,-0.00,-0.00,0.00,-0.00,-0.03,0.03,-0.09,-0.00,127.35,41.026,-8.453111
1630185240,1.31,0.98,127.17,242.74,22.17,-0.00,-0.00,0.00,-0.00,-0.03,0.03,-0.09,-0.00,126.79,41.026,-8.453111
1630185242,1.31,0.97,127.13,242.69,22.15,-0.00,-0.00,0.00,-0.00,-0.03,0.03,-0.09,-0.00,127.92,41.026,-8.453111
1630185244,1.31,0.97,127.08,242.72,22.14,-0.00,-0.00,0.00,-0.00,-0.03,0.03,-0.09,-0.00,128.14,41.026,-8.453111
1630185245,1.31,0.97,127.06,242.72,22.14,-0.00,-0.00,0.00,-0.00,-0.03,0.03,-0.09,-0.00,127.61,41.026,-8.453111
1630185247,1.32,0.98,127.11,242.69,22.15,-0.00,-0.00,0.00,-0.00,-0.03,0.03,-0.09,-0.00,127.78,41.026,-8.453111
1630185249,1.33,0.98,127.15,242.64,22.15,-0.00,-0.00,0.00,-0.00,-0.03,0.03,-0.09,-0.00,127.45,41.026,-8.453111
1630185251,1.33,0.99,127.15,242.63,22.13,-0.00,-0.00,0.00,-0.00,-0.03,0.03,-0.09,-0.00,127.31,41.026,-8.453111
1630185253,1.33,1.00,127.16,242.69,22.12,-0.00,-0.00,0.00,-0.00,-0.03,0.03,-0.09,-0.00,128.68,41.026,-8.453111
1630185254,1.32,1.00,127.14,242.80,22.13,-0.00,-0.00,0.00,-0.00,-0.03,0.03,-0.09,-0.00,127.10,41.026,-8.453111
1630185256,1.31,1.00,127.08,242.72,22.15,-0.00,-0.00,0.00,-0.00,-0.03,0.03,-0.09,-0.00,126.97,41.026,-8.453111
1630185258,1.30,1.00,127.03,242.66,22.15,-0.00,-0.00,0.00,-0.00,-0.03,0.03,-0.09,-0.00,126.96,41.026,-8.453111
1630185260,1.29,1.00,127.02,242.71,22.13,-0.00,-0.00,0.00,-0.00,-0.03,0.03,-0.09,-0.00,128.57,41.026,-8.453111
1630185262,1.29,0.99,127.05,242.72,22.14,-0.00,-0.00,0.00,-0.00,-0.03,0.03,-0.09,-0.00,126.58,41.026,-8.453111
1630185263,1.30,0.98,127.08,242.72,22.14,-0.00,-0.00,0.00,-0.00,-0.03,0.03,-0.09,-0.00,127.04,41.026,-8.453111
1630185265,1.30,0.98,127.11,242.80,22.14,-0.00,-0.00,0.00,-0.00,-0.03,0.03,-0.09,-0.00,127.38,41.026,-8.453111
1630185267,1.30,0.98,127.13,242.74,22.15,-0.00,-0.00,0.00,-0.00,-0.03,0.03,-0.09,-0.00,128.30,41.026,-8.453111
1630185269,1.31,0.97,127.16,242.72,22.15,-0.00,-0.00,0.00,-0.00,-0.03,0.03,-0.09,-0.00,127.19,41.026,-8.453111
1630185271,1.31,0.98,127.17,242.80,22.14,-0.00,-0.00,0.00,-0.00,-0.03,0.03,-0.09,-0.00,127.18,41.026,-8.453111
1630185272,1.32,0.98,127.15,242.80,22.13,-0.00,-0.00,0.00,-0.00,-0.03,0.03,-0.09,-0.00,126.39,41.026,-8.453111
1630185274,1.32,0.98,127.10,242.71,22.12,-0.00,-0.00,0.00,-0.00,-0.03,0.03,-0.09,-0.00,127.81,41.026,-8.453111
1630185276,1.31,0.98,127.04,242.69,22.12,-0.00,-0.00,0.00,-0.00,-0.03,0.03,-0.09,-0.00,128.73,41.026,-8.453111
1630185278,1.31,0.98,127.09,242.78,22.12,-0.00,-0.00,0.00,-0.00,-0.03,0.03,-0.09,-0.00,127.79,41.026,-8.453111
1630185280,1.31,0.98,127.08,242.72,22.12,-0.00,-0.00,0.00,-0.00,-0.03,0.03,-0.09,-0.00,128.13,41.026,-8.453111
1630185281,1.29,0.98,127.09,242.77,22.12,-0.00,-0.00,0.00,-0.00,-0.03,0.03,-0.09,-0.00,128.86,41.026,-8.453111
1630185283,1.30,0.97,127.12,242.78,22.12,-0.00,-0.00,0.00,-0.00,-0.03,0.03,-0.09,-0.00,128.30,41.026,-8.453111
1630185285,1.29,0.97,127.12,242.69,22.12,-0.00,-0.00,0.00,-0.00,-0.03,0.03,-0.09,-0.00,126.92,41.026,-8.453111
1630185287,1.30,0.96,127.07,242.77,22.11,-0.00,-0.00,0.00,-0.00,-0.03,0.03,-0.09,-0.00,127.39,41.026,-8.453111
1630185289,1.30,0.96,127.01,242.74,22.10,-0.00,-0.00,0.00,-0.00,-0.03,0.03,-0.09,-0.00,127.49,41.026,-8.453111
1630185291,1.29,0.96,127.03,242.72,22.09,-0.00,-0.00,0.00,-0.00,-0.03,0.03,-0.09,-0.00,127.82,41.026,-8.453111
1630185292,1.28,0.97,127.07,242.75,22.09,-0.00,-0.00,0.00,-0.00,-0.03,0.03,-0.09,-0.00,127.57,41.026,-8.453111
1630185294,1.29,0.97,127.07,242.77,22.10,-0.00,-0.00,0.00,-0.00,-0.03,0.03,-0.09,-0.00,127.33,41.026,-8.453111
1630185296,1.30,0.96,127.07,242.75,22.09,-0.00,-0.00,0.00,-0.00,-0.03,0.03,-0.09,-0.00,127.78,41.026,-8.453111
1630185298,1.30,0.96,127.02,242.75,22.07,-0.00,-0.00,0.00,-0.00,-0.03,0.03,-0.09,-0.00,126.64,41.026,-8.453111
1630185300,1.28,0.98,127.04,242.85,22.07,-0.00,-0.00,0.00,-0.00,-0.03,0.03,-0.09,-0.00,126.47,41.026,-8.453111
1630185301,1.29,1.00,127.08,242.83,22.07,-0.00,-0.00,0.00,-0.00,-0.03,0.03,-0.09,-0.00,127.45,41.026,-8.453111
1630185303,1.30,1.01,127.11,242.83,22.06,-0.00,-0.00,0.00,-0.00,-0.03,0.03,-0.09,-0.00,128.62,41.026,-8.453111
1630185305,1.29,1.01,127.13,242.83,22.06,-0.00,-0.00,0.00,-0.00,-0.03,0.03,-0.09,-0.00,127.67,41.026,-8.453111
1630185307,1.30,1.00,127.14,242.83,22.06,-0.00,-0.00,0.00,-0.00,-0.03,0.03,-0.09,-0.00,127.53,41.026,-8.453111
1630185309,1.29,1.00,127.07,242.83,22.06,-0.00,-0.00,0.00,-0.00,-0.03,0.03,-0.09,-0.00,128.42,41.026,-8.453111
1630185310,1.29,1.00,127.00,242.83,22.06,-0.00,-0.00,0.00,-0.00,-0.03,0.03,-0.09,-0.00,128.14,41.026,-8.453111
1630185312,1.29,1.01,126.97,242.82,22.04,-0.00,-0.00,0.00,-0.00,-0.03,0.03,-0.09,-0.00,128.13,41.026,-8.453111
1630185314,1.31,1.01,127.00,242.88,22.06,-0.00,-0.00,0.00,-0.00,-0.03,0.03,-0.09,-0.00,128.39,41.026,-8.453111
1630185316,1.30,1.02,127.02,242.85,22.07,-0.00,-0.00,0.00,-0.00,-0.03,0.03,-0.09,-0.00,126.93,41.026,-8.453111
1630185318,1.31,1.02,127.02,242.86,22.10,-0.00,-0.00,0.00,-0.00,-0.03,0.03,-0.09,-0.00,128.44,41.026,-8.453111
1630185319,1.30,1.01,127.02,242.86,22.11,-0.00,-0.00,0.00,-0.00,-0.03,0.03,-0.09,-0.00,127.12,41.026,-8.453111
1630185321,1.29,1.02,127.03,242.88,22.12,-0.00,-0.00,0.00,-0.00,-0.03,0.03,-0.09,-0.00,127.81,41.026,-8.453111
1630185323,1.29,1.01,127.04,242.86,22.12,-0.00,-0.00,0.00,-0.00,-0.03,0.03,-0.09,-0.00,128.13,41.026,-8.453111
1630185325,1.29,1.00,127.02,242.88,22.12,-0.00,-0.00,0.00,-0.00,-0.03,0.03,-0.09,-0.00,127.19,41.026,-8.453111
1630185327,1.31,1.00,126.96,242.86,22.12,-0.00,-0.00,0.00,-0.00,-0.03,0.03,-0.09,-0.00,126.68,41.026,-8.453111
1630185328,1.31,0.99,126.92,242.97,22.12,-0.00,-0.00,0.00,-0.00,-0.03,0.03,-0.09,-0.00,127.10,41.026,-8.453111
1630185330,1.32,1.00,126.93,242.88,22.13,-0.00,-0.00,0.00,-0.00,-0.03,0.03,-0.09,-0.00,127.82,41.026,-8.453111
1630185332,1.32,1.00,126.97,242.91,22.14,-0.00,-0.00,0.00,-0.00,-0.03,0.03,-0.09,-0.00,128.24,41.026,-8.453111
1630185334,1.33,1.01,126.97,242.91,22.15,-0.00,-0.00,0.00,-0.00,-0.03,0.03,-0.09,-0.00,127.02,41.026,-8.453111
1630185336,1.34,1.02,126.98,242.92,22.17,-0.00,-0.00,0.00,-0.00,-0.03,0.03,-0.09,-0.00,127.18,41.026,-8.453111
1630185337,1.34,1.01,127.00,242.91,22.17,-0.00,-0.00,0.00,-0.00,-0.03,0.03,-0.09,-0.00,127.29,41.026,-8.453111
1630185339,1.34,1.01,126.96,242.96,22.17,-0.00,-0.00,0.00,-0.00,-0.03,0.03,-0.09,-0.00,127.11,41.026,-8.453111
1630185341,1.33,1.02,126.94,242.91,22.15,-0.00,-0.00,0.00,-0.00,-0.03,0.03,-0.09,-0.00,126.44,41.026,-8.453111
1630185343,1.33,1.01,126.91,243.00,22.15,-0.00,-0.00,0.00,-0.00,-0.03,0.03,-0.09,-0.00,126.17,41.026,-8.453111
1630185345,1.33,1.02,126.88,242.91,22.15,-0.00,-0.00,0.00,-0.00,-0.03,0.03,-0.09,-0.00,126.56,41.026,-8.453111
1630185346,1.32,1.02,126.83,242.89,22.14,-0.00,-0.00,0.00,-0.00,-0.03,0.03,-0.09,-0.00,128.70,41.026,-8.453111
1630185348,1.32,1.02,126.88,242.97,22.13,-0.00,-0.00,0.00,-0.00,-0.03,0.03,-0.09,-0.00,127.16,41.026,-8.453111
1630185350,1.32,1.01,126.92,242.88,22.13,-0.00,-0.00,0.00,-0.00,-0.03,0.03,-0.09,-0.00,128.05,41.026,-8.453111
1630185352,1.33,1.02,126.95,242.97,22.12,-0.00,-0.00,0.00,-0.00,-0.03,0.03,-0.09,-0.00,127.55,41.026,-8.453111
1630185354,1.32,1.01,126.95,242.97,22.13,-0.00,-0.00,0.00,-0.00,-0.03,0.03,-0.09,-0.00,128.71,41.026,-8.453111
1630185355,1.32,1.02,126.96,242.97,22.13,-0.00,-0.00,0.00,-0.00,-0.03,0.03,-0.09,-0.00,128.52,41.026,-8.453111
1630185357,1.32,1.03,126.98,242.97,22.12,-0.00,-0.00,0.00,-0.00,-0.03,0.03,-0.09,-0.00,128.08,41.026,-8.453111
1630185359,1.32,1.03,126.96,242.97,22.12,-0.00,-0.00,0.00,-0.00,-0.03,0.03,-0.09,-0.00,127.17,41.026,-8.453111
1630185361,1.31,1.02,126.90,242.97,22.12,-0.00,-0.00,0.00,-0.00,-0.03,0.03,-0.09,-0.00,128.09,41.026,-8.453111
1630185363,1.33,1.02,126.90,242.96,22.11,-0.00,-0.00,0.00,-0.00,-0.03,0.03,-0.09,-0.00,127.16,41.026,-8.453111
1630185364,1.33,1.02,126.93,243.03,22.12,-0.00,-0.00,0.00,-0.00,-0.03,0.03,-0.09,-0.00,126.79,41.026,-8.453111
1630185366,1.33,1.02,126.94,243.00,22.12,-0.00,-0.00,0.00,-0.00,-0.03,0.03,-0.09,-0.00,126.96,41.026,-8.453111
1630185368,1.34,1.02,126.95,242.97,22.12,-0.00,-0.00,0.00,-0.00,-0.03,0.03,-0.09,-0.00,128.23,41.026,-8.453111
1630185370,1.32,1.02,126.95,242.97,22.12,-0.00,-0.00,0.00,-0.00,-0.03,0.03,-0.09,-0.00,128.35,41.026,-8.453111
1630185372,1.33,1.01,126.98,242.97,22.12,-0.00,-0.00,0.00,-0.00,-0.03,0.03,-0.09,-0.00,128.37,41.026,-8.453111
1630185373,1.33,1.00,127.00,242.97,22.12,-0.00,-0.00,0.00,-0.00,-0.03,0.03,-0.09,-0.00,127.62,41.026,-8.453111
1630185375,1.33,1.00,126.98,242.97,22.12,-0.00,-0.00,0.00,-0.00,-0.03,0.03,-0.09,-0.00,127.45,41.026,-8.453111
1630185377,1.34,0.99,126.94,242.97,22.12,-0.00,-0.00,0.00,-0.00,-0.03,0.03,-0.09,-0.00,126.62,41.026,-8.453111
1630185379,1.34,1.00,126.89,243.00,22.11,-0.00,-0.00,0.00,-0.00,-0.03,0.03,-0.09,-0.00,126.89,41.026,-8.453111
1630185381,1.34,1.00,126.95,242.96,22.11,-0.00,-0.00,0.00,-0.00,-0.03,0.03,-0.09,-0.00,127.79,41.026,-8.453111
1630185382,1.35,1.00,126.98,243.03,22.10,-0.00,-0.00,0.00,-0.00,-0.03,0.03,-0.09,-0.00,127.32,41.026,-8.453111
1630185384,1.34,0.99,127.01,242.94,22.10,-0.00,-0.00,0.00,-0.00,-0.03,0.03,-0.09,-0.00,126.59,41.026,-8.453111
1630185386,1.34,0.99,127.04,243.02,22.09,-0.00,-0.00,0.00,-0.00,-0.03,0.03,-0.09,-0.00,126.74,41.026,-8.453111
1630185388,1.34,0.98,127.00,243.00,22.09,-0.00,-0.00,0.00,-0.00,-0.03,0.03,-0.09,-0.00,126.35,41.026,-8.453111
1630185390,1.34,0.99,126.99,243.02,22.09,-0.00,-0.00,0.00,-0.00,-0.03,0.03,-0.09,-0.00,128.59,41.026,-8.453111
1630185391,1.34,0.98,126.98,243.02,22.09,-0.00,-0.00,0.00,-0.00,-0.03,0.03,-0.09,-0.00,127.25,41.026,-8.453111
1630185393,1.34,0.99,127.01,242.94,22.09,-0.00,-0.00,0.00,-0.00,-0.03,0.03,-0.09,-0.00,127.80,41.026,-8.453111
1630185395,1.33,1.00,127.01,242.94,22.09,-0.00,-0.00,0.00,-0.00,-0.03,0.03,-0.09,-0.00,127.97,41.026,-8.453111
1630185397,1.34,0.98,126.97,242.92,22.07,-0.00,-0.00,0.00,-0.00,-0.03,0.03,-0.09,-0.00,128.27,41.026,-8.453111
1630185399,1.34,0.98,126.92,243.02,22.07,-0.00,-0.00,0.00,-0.00,-0.03,0.03,-0.09,-0.00,126.19,41.026,-8.453111
1630185400,1.34,0.99,126.93,243.02,22.09,-0.00,-0.00,0.00,-0.00,-0.03,0.03,-0.09,-0.00,126.86,41.026,-8.453111
1630185402,1.33,0.98,126.98,242.99,22.09,-0.00,-0.00,0.00,-0.00,-0.03,0.03,-0.09,-0.00,127.95,41.026,-8.453111
1630185404,1.33,0.98,127.00,243.02,22.07,-0.00,-0.00,0.00,-0.00,-0.03,0.03,-0.09,-0.00,127.70,41.026,-8.453111
1630185406,1.32,0.99,127.04,243.02,22.07,-0.00,-0.00,0.00,-0.00,-0.03,0.03,-0.09,-0.00,126.77,41.026,-8.453111
1630185408,1.33,0.98,127.03,243.03,22.10,-0.00,-0.00,0.00,-0.00,-0.03,0.03,-0.09,-0.00,128.08,41.026,-8.453111
1630185409,1.33,0.97,126.98,242.96,22.11,-0.00,-0.00,0.00,-0.00,-0.03,0.03,-0.09,-0.00,127.61,41.026,-8.453111
1630185411,1.32,0.97,126.98,243.03,22.11,-0.00,-0.00,0.00,-0.00,-0.03,0.03,-0.09,-0.00,128.62,41.026,-8.453111
1630185413,1.31,0.98,127.02,242.94,22.11,-0.00,-0.00,0.00,-0.00,-0.03,0.03,-0.09,-0.00,126.93,41.026,-8.453111
1630185415,1.32,0.98,127.05,243.02,22.09,-0.00,-0.00,0.00,-0.00,-0.03,0.03,-0.09,-0.00,126.60,41.026,-8.453111
1630185417,1.32,0.99,127.09,243.02,22.07,-0.00,-0.00,0.00,-0.00,-0.03,0.03,-0.09,-0.00,126.60,41.026,-8.453111
1630185418,1.31,0.98,127.07,243.02,22.09,-0.00,-0.00,0.00,-0.00,-0.03,0.03,-0.09,-0.00,127.87,41.026,-8.453111
1630185420,1.32,0.98,127.05,243.13,22.10,-0.00,-0.00,0.00,-0.00,-0.03,0.03,-0.09,-0.00,127.30,41.026,-8.453111
1630185422,1.33,0.98,127.06,243.05,22.11,-0.00,-0.00,0.00,-0.00,-0.03,0.03,-0.09,-0.00,127.94,41.026,-8.453111
1630185424,1.34,0.98,127.04,243.14,22.12,-0.00,-0.00,0.00,-0.00,-0.03,0.03,-0.09,-0.00,128.07,41.026,-8.453111
1630185426,1.34,0.97,127.06,243.08,22.14,-0.00,-0.00,0.00,-0.00,-0.03,0.03,-0.09,-0.00,126.23,41.026,-8.453111
1630185427,1.32,0.99,127.06,243.08,22.15,-0.00,-0.00,0.00,-0.00,-0.03,0.03,-0.09,-0.00,127.45,41.026,-8.453111
1630185429,1.32,0.98,126.98,243.08,22.17,-0.00,-0.00,0.00,-0.00,-0.03,0.03,-0.09,-0.00,127.27,41.026,-8.453111
1630185431,1.32,0.99,126.89,243.08,22.17,-0.00,-0.00,0.00,-0.00,-0.03,0.03,-0.09,-0.00,127.01,41.026,-8.453111
1630185433,1.32,0.99,126.94,243.08,22.17,-0.00,-0.00,0.00,-0.00,-0.03,0.03,-0.09,-0.00,127.96,41.026,-8.453111
1630185435,1.32,1.00,126.93,243.08,22.17,-0.00,-0.00,0.00,-0.00,-0.03,0.03,-0.09,-0.00,129.64,41.026,-8.453111
1630185436,1.32,1.01,126.95,243.08,22.17,-0.00,-0.00,0.00,-0.00,-0.03,0.03,-0.09,-0.00,127.74,41.026,-8.453111
1630185438,1.31,1.03,126.97,243.08,22.17,-0.00,-0.00,0.00,-0.00,-0.03,0.03,-0.09,-0.00,127.74,41.026,-8.453111
1630185440,1.31,1.03,126.98,243.08,22.15,-0.00,-0.00,0.00,-0.00,-0.03,0.03,-0.09,-0.00,128.87,41.026,-8.453111
1630185442,1.31,1.02,127.01,243.08,22.14,-0.00,-0.00,0.00,-0.00,-0.03,0.03,-0.09,-0.00,127.91,41.026,-8.453111
1630185444,1.31,1.02,126.98,243.07,22.13,-0.00,-0.00,0.00,-0.00,-0.03,0.03,-0.09,-0.00,126.93,41.026,-8.453111
1630185445,1.30,1.03,126.92,243.07,22.13,-0.00,-0.00,0.00,-0.00,-0.03,0.03,-0.09,-0.00,126.66,41.026,-8.453111
1630185447,1.32,1.01,126.88,243.16,22.13,-0.00,-0.00,0.00,-0.00,-0.03,0.03,-0.09,-0.00,128.11,41.026,-8.453111
1630185449,1.31,1.00,126.85,243.05,22.12,-0.00,-0.00,0.00,-0.00,-0.03,0.03,-0.09,-0.00,127.13,41.026,-8.453111
1630185451,1.32,1.00,126.90,243.08,22.14,-0.00,-0.00,0.00,-0.00,-0.03,0.03,-0.09,-0.00,127.11,41.026,-8.453111
1630185453,1.31,1.00,126.92,243.08,22.14,-0.00,-0.00,0.00,-0.00,-0.03,0.03,-0.09,-0.00,127.31,41.026,-8.453111
1630185454,1.31,1.00,126.96,243.08,22.15,-0.00,-0.00,0.00,-0.00,-0.03,0.03,-0.09,-0.00,128.00,41.026,-8.453111
1630185456,1.32,1.00,126.95,243.10,22.18,-0.00,-0.00,0.00,-0.00,-0.03,0.03,-0.09,-0.00,127.27,41.026,-8.453111
1630185458,1.33,1.00,126.99,434.14,22.19,-0.00,-0.00,0.00,-0.00,-0.03,0.03,-0.09,-0.00,127.18,41.026,-8.453111
1630185460,1.33,1.00,126.99,434.16,22.20,-0.00,-0.00,0.00,-0.00,-0.03,0.03,-0.09,-0.00,127.43,41.026,-8.453111
1630185462,1.32,0.99,127.00,434.16,22.20,-0.00,-0.00,0.00,-0.00,-0.03,0.03,-0.09,-0.00,126.86,41.026,-8.453111
1630185463,1.32,0.99,127.02,434.08,22.20,-0.00,-0.00,0.00,-0.00,-0.03,0.03,-0.09,-0.00,128.12,41.026,-8.453111
1630185465,1.31,1.02,126.98,434.07,22.19,-0.00,-0.00,0.00,-0.00,-0.03,0.03,-0.09,-0.00,126.58,41.026,-8.453111
1630185467,1.32,1.02,126.91,410.26,22.19,-0.00,-0.00,0.00,-0.00,-0.03,0.03,-0.09,-0.00,127.06,41.026,-8.453111
1630185469,1.33,1.02,126.87,243.10,22.18,-0.00,-0.00,0.00,-0.00,-0.03,0.03,-0.09,-0.00,126.50,41.026,-8.453111
1630185471,1.34,1.03,126.91,243.08,22.18,-0.00,-0.00,0.00,-0.00,-0.03,0.03,-0.09,-0.00,128.70,41.026,-8.453111
1630185472,1.34,1.02,126.94,243.08,22.17,-0.00,-0.00,0.00,-0.00,-0.03,0.03,-0.09,-0.00,125.38,41.026,-8.453111
1630185474,1.35,1.02,126.94,243.08,22.17,-0.00,-0.00,0.00,-0.00,-0.03,0.03,-0.09,-0.00,127.50,41.026,-8.453111
1630185476,1.33,1.02,126.91,243.08,22.14,-0.00,-0.00,0.00,-0.00,-0.03,0.03,-0.09,-0.00,126.38,41.026,-8.453111
1630185478,1.34,1.02,126.94,243.08,22.14,-0.00,-0.00,0.00,-0.00,-0.03,0.03,-0.09,-0.00,127.95,41.026,-8.453111
1630185480,1.35,1.02,126.94,243.05,22.13,-0.00,-0.00,0.00,-0.00,-0.03,0.03,-0.09,-0.00,128.04,41.026,-8.453111
1630185481,1.34,1.01,126.97,243.16,22.14,-0.00,-0.00,0.00,-0.00,-0.03,0.03,-0.09,-0.00,128.20,41.026,-8.453111
1630185483,1.34,1.00,126.99,243.11,22.15,-0.00,-0.00,0.00,-0.00,-0.03,0.03,-0.09,-0.00,127.60,41.026,-8.453111
1630185485,1.34,1.01,126.95,243.05,22.17,-0.00,-0.00,0.00,-0.00,-0.03,0.03,-0.09,-0.00,126.73,41.026,-8.453111
1630185487,1.33,1.01,126.89,243.08,22.15,-0.00,-0.00,0.00,-0.00,-0.03,0.03,-0.09,-0.00,126.38,41.026,-8.453111
1630185489,1.34,1.01,126.85,243.02,22.15,-0.00,-0.00,0.00,-0.00,-0.03,0.03,-0.09,-0.00,127.11,41.026,-8.453111
1630185490,1.34,1.02,126.90,243.02,22.14,-0.00,-0.00,0.00,-0.00,-0.03,0.03,-0.09,-0.00,128.22,41.026,-8.453111
1630185492,1.33,1.02,126.92,243.07,22.13,-0.00,-0.00,0.00,-0.00,-0.03,0.03,-0.09,-0.00,126.57,41.026,-8.453111
1630185494,1.33,1.02,126.94,243.07,22.13,-0.00,-0.00,0.00,-0.00,-0.03,0.03,-0.09,-0.00,127.73,41.026,-8.453111
1630185496,1.33,1.02,126.93,243.08,22.15,-0.00,-0.00,0.00,-0.00,-0.03,0.03,-0.09,-0.00,126.18,41.026,-8.453111
1630185498,1.34,1.00,126.94,243.00,22.17,-0.00,-0.00,0.00,-0.00,-0.03,0.03,-0.09,-0.00,127.81,41.026,-8.453111
1630185499,1.34,1.01,126.96,242.99,22.14,-0.00,-0.00,0.00,-0.00,-0.03,0.03,-0.09,-0.00,127.14,41.026,-8.453111
1630185501,1.34,0.99,126.97,243.03,22.14,-0.00,-0.00,0.00,-0.00,-0.03,0.03,-0.09,-0.00,128.55,41.026,-8.453111
1630185503,1.33,0.99,127.01,243.07,22.13,-0.00,-0.00,0.00,-0.00,-0.03,0.03,-0.09,-0.00,127.35,41.026,-8.453111
1630185505,1.32,1.01,127.02,243.00,22.13,-0.00,-0.00,0.00,-0.00,-0.03,0.03,-0.09,-0.00,126.73,41.026,-8.453111
1630185507,1.31,1.02,127.00,243.05,22.12,-0.00,-0.00,0.00,-0.00,-0.03,0.03,-0.09,-0.00,127.58,41.026,-8.453111
1630185508,1.31,1.02,127.03,243.05,22.12,-0.00,-0.00,0.00,-0.00,-0.03,0.03,-0.09,-0.00,126.44,41.026,-8.453111
1630185510,1.31,1.03,127.03,243.02,22.12,-0.00,-0.00,0.00,-0.00,-0.03,0.03,-0.09,-0.00,126.74,41.026,-8.453111
1630185512,1.30,1.02,126.97,243.02,22.12,-0.00,-0.00,0.00,-0.00,-0.03,0.03,-0.09,-0.00,126.61,41.026,-8.453111
1630185514,1.29,1.01,126.92,243.05,22.12,-0.00,-0.00,0.00,-0.00,-0.03,0.03,-0.09,-0.00,127.99,41.026,-8.453111
1630185547,0.77,0.53,128.61,242.94,21.98,-4.85,-3.25,-0.00,-0.00,-0.03,0.03,-0.09,-0.00,127.07,41.026,-8.453111
1630185549,0.86,0.60,128.51,242.91,22.01,-127.96,-122.11,318.39,-0.00,-0.03,0.03,-0.09,-0.00,128.30,41.026,-8.453111
1630185551,0.94,0.66,128.40,242.96,22.01,-129.25,-123.03,319.26,-0.00,-0.03,0.03,-0.09,-0.00,127.96,41.026,-8.453111
1630185552,1.00,0.71,128.27,242.97,22.03,-130.15,-123.86,320.46,-0.00,-0.03,0.03,-0.09,-0.00,127.68,41.026,-8.453111
1630185554,1.06,0.74,128.09,242.97,22.03,-130.85,-124.36,321.96,-0.00,-0.03,0.03,-0.09,-0.00,127.74,41.026,-8.453111
1630185556,1.10,0.77,127.93,242.99,22.04,-131.75,-124.92,323.17,-0.00,-0.03,0.03,-0.09,-0.00,128.54,41.026,-8.453111
1630185558,1.14,0.81,127.83,242.99,22.04,-132.47,-125.55,323.71,-0.00,-0.03,0.03,-0.09,-0.00,128.90,41.026,-8.453111
1630185560,1.19,0.84,127.77,242.99,22.04,-133.10,-125.91,324.16,-0.00,-0.03,0.03,-0.09,-0.00,126.59,41.026,-8.453111
1630185561,1.21,0.88,127.69,242.99,22.04,-133.43,-126.41,324.81,-0.00,-0.03,0.03,-0.09,-0.00,127.88,41.026,-8.453111
1630185563,1.21,0.93,127.63,243.00,22.05,-133.23,-127.36,325.28,-0.00,-0.03,0.03,-0.09,-0.00,127.81,41.026,-8.453111
1630185565,1.23,0.94,127.57,243.00,22.05,-133.65,-127.32,325.71,-0.00,-0.03,0.03,-0.09,-0.00,125.66,41.026,-8.453111
1630185567,1.24,0.95,127.51,243.00,22.05,-133.83,-127.71,326.19,-0.00,-0.03,0.03,-0.09,-0.00,127.57,41.026,-8.453111
1630185569,1.25,0.96,127.45,243.00,22.06,-134.08,-127.80,326.80,-0.00,-0.03,0.03,-0.09,-0.00,126.84,41.026,-8.453111
1630185570,1.27,0.98,127.39,243.00,22.06,-131.28,-286.67,327.97,-0.00,-0.03,0.03,-0.09,-0.00,128.66,41.026,-8.453111
1630185572,0.91,24.98,127.20,243.10,22.06,-127.67,-540.51,326.81,-0.00,-0.03,0.03,-0.09,-0.00,129.75,41.026,-8.453111
1630185574,0.84,27.80,127.76,243.19,22.10,-126.52,-602.46,321.87,-0.00,-0.03,0.03,-0.09,-0.00,129.34,41.026,-8.453111
1630185576,0.78,31.00,128.32,243.16,22.12,-125.97,-630.31,318.55,-0.00,-0.03,0.03,-0.09,-0.00,129.97,41.026,-8.453111
1630185578,0.97,18.15,128.59,243.13,22.13,-131.75,-147.33,319.22,-0.00,-0.03,0.03,-0.09,-0.00,130.02,41.026,-8.453111
1630185579,1.25,1.02,128.38,243.08,22.15,-134.04,-128.59,319.73,-0.00,-0.03,0.03,-0.09,-0.00,127.15,41.026,-8.453111
1630185581,1.29,0.98,128.18,243.08,22.17,-134.68,-127.99,321.37,-0.00,-0.03,0.03,-0.09,-0.00,127.26,41.026,-8.453111
1630185583,1.31,0.97,128.03,243.08,22.17,-114.54,-113.90,322.21,-0.00,-0.03,0.03,-0.09,-0.00,127.63,41.026,-8.453111
1630185585,1.32,0.97,127.95,243.08,22.17,-114.54,-113.89,322.80,-0.00,-0.03,0.03,-0.09,-0.00,128.34,41.026,-8.453111
1630185587,1.33,0.97,127.87,243.10,22.18,-114.55,-113.90,323.41,-0.00,-0.03,0.03,-0.09,-0.00,127.64,41.026,-8.453111
1630185588,1.33,0.98,127.79,243.10,22.18,-114.56,-113.90,324.01,-0.00,-0.03,0.03,-0.09,-0.00,126.80,41.026,-8.453111
1630185590,1.34,0.97,127.72,243.08,22.19,-114.58,-113.90,324.52,-0.00,-0.03,0.03,-0.09,-0.00,127.07,41.026,-8.453111
1630185592,1.35,0.98,127.68,243.11,22.19,-114.59,-113.92,324.78,-0.00,-0.03,0.03,-0.09,-0.00,128.11,41.026,-8.453111
1630185594,1.36,0.98,127.65,434.07,22.19,-114.58,-113.97,325.08,-0.00,-0.03,0.03,-0.09,-0.00,127.72,41.026,-8.453111
1630185596,0.84,36.57,128.34,434.23,22.19,-113.78,-165.79,316.64,-0.00,-0.03,0.03,-0.09,-0.00,131.11,41.026,-8.453111
1630185597,0.83,33.68,128.97,434.25,22.21,-113.86,-161.18,313.50,-0.00,-0.03,0.03,-0.09,-0.00,131.30,41.026,-8.453111
1630185599,0.82,33.86,129.26,434.27,22.23,-114.21,-137.19,320.71,-0.00,-0.03,0.03,-0.09,-0.00,131.59,41.026,-8.453111
1630185601,1.27,1.12,127.72,434.25,22.26,-114.48,-114.12,324.89,-0.00,-0.03,0.03,-0.09,-0.00,127.76,41.026,-8.453111
1630185603,1.28,1.11,127.57,434.17,22.26,-114.50,-114.11,326.16,-0.00,-0.03,0.03,-0.09,-0.00,127.72,41.026,-8.453111
1630185605,1.29,1.10,127.42,434.22,22.27,-114.50,-114.09,327.30,-0.00,-0.03,0.03,-0.09,-0.00,125.69,41.026,-8.453111
1630185606,1.30,1.10,127.28,434.20,22.28,-114.52,-114.08,328.14,-0.00,-0.03,0.03,-0.09,-0.00,126.51,41.026,-8.453111
1630185608,1.31,1.10,127.18,434.20,22.28,-114.53,-114.09,329.03,-0.00,-0.03,0.03,-0.09,-0.00,128.64,41.026,-8.453111
1630185610,1.32,1.10,127.05,434.20,22.28,-114.53,-114.09,330.15,-0.00,-0.03,0.03,-0.09,-0.00,126.88,41.026,-8.453111
