timestamp,quad_roll,quad_pitch,quad_yaw,quad_altitude,quad_temperature,u_roll,u_pitch,u_yaw,u_altitude,cmd_roll,cmd_pitch,cmd_yaw,cmd_altitude,heading,lat,lon
1615126957,1.11,0.45,320.87,-0.00,20.76,-3.60,-1.63,-0.08,-0.25,-0.00,-0.00,-0.00,-0.00,321.40,41.026,-8.453111
1615126959,1.12,0.46,320.85,-0.00,20.77,-3.62,-1.64,-0.08,-0.25,-0.00,-0.00,-0.00,-0.00,322.51,41.026,-8.453111
1615126960,1.12,0.46,320.85,-0.00,20.76,-3.64,-1.64,-0.08,-0.25,-0.00,-0.00,-0.00,-0.00,321.67,41.026,-8.453111
1615126962,1.13,0.47,320.86,-0.00,20.76,-3.65,-1.67,-0.08,-0.25,-0.00,-0.00,-0.00,-0.00,322.23,41.026,-8.453111
1615126964,1.12,0.48,320.87,-0.00,20.77,-3.63,-1.73,-0.08,-0.25,-0.00,-0.00,-0.00,-0.00,321.81,41.026,-8.453111
1615126966,1.13,0.49,320.87,-0.00,20.77,-3.65,-1.73,-0.09,-0.25,-0.00,-0.00,-0.00,-0.00,321.78,41.026,-8.453111
1615126968,1.13,0.49,320.87,-0.00,20.77,-3.66,-1.72,-0.08,-0.25,-0.00,-0.00,-0.00,-0.00,322.62,41.026,-8.453111
1615126969,1.13,0.48,320.87,-0.00,20.77,-3.64,-1.69,-0.08,-0.25,-0.00,-0.00,-0.00,-0.00,321.64,41.026,-8.453111
1615126971,1.13,0.47,320.87,-0.00,20.77,-3.65,-1.66,-0.09,-0.25,-0.00,-0.00,-0.00,-0.00,321.98,41.026,-8.453111
1615126973,1.13,0.47,320.89,-0.00,20.77,-3.66,-1.69,-0.10,-0.25,-0.00,-0.00,-0.00,-0.00,321.73,41.026,-8.453111
1615126975,1.13,0.47,320.90,-0.00,20.78,-3.64,-1.67,-0.09,-0.25,-0.00,-0.00,-0.00,-0.00,321.90,41.026,-8.453111
1615126977,1.12,0.47,320.89,-0.00,20.78,-3.64,-1.67,-0.10,-0.25,-0.00,-0.00,-0.00,-0.00,321.75,41.026,-8.453111
1615126978,1.13,0.47,320.88,-0.00,20.79,-3.67,-1.67,-0.09,-0.25,-0.00,-0.00,-0.00,-0.00,321.73,41.026,-8.453111
1615126980,1.14,0.48,320.89,-0.00,20.79,-3.69,-1.71,-0.09,-0.25,-0.00,-0.00,-0.00,-0.00,322.00,41.026,-8.453111
1615126982,1.14,0.48,320.89,-0.00,20.79,-3.68,-1.70,-0.10,-0.25,-0.00,-0.00,-0.00,-0.00,322.32,41.026,-8.453111
1615126984,1.14,0.48,320.90,-0.00,20.80,-3.66,-1.68,-0.10,-0.25,-0.00,-0.00,-0.00,-0.00,322.16,41.026,-8.453111
1615126986,1.13,0.47,320.90,-0.00,20.80,-3.64,-1.68,-0.10,-0.25,-0.00,-0.00,-0.00,-0.00,321.87,41.026,-8.453111
1615126987,1.13,0.47,320.91,-0.00,20.81,-3.67,-1.66,-0.10,-0.25,-0.00,-0.00,-0.00,-0.00,322.64,41.026,-8.453111
1615126989,1.13,0.47,320.89,-0.00,20.81,-3.66,-1.68,-0.09,-0.25,-0.00,-0.00,-0.00,-0.00,321.55,41.026,-8.453111
1615126991,1.13,0.48,320.88,-0.00,20.82,-3.64,-1.68,-0.09,-0.25,-0.00,-0.00,-0.00,-0.00,321.95,41.026,-8.453111
1615126993,1.13,0.47,320.88,-0.00,20.84,-3.66,-1.69,-0.09,-0.25,-0.00,-0.00,-0.00,-0.00,321.77,41.026,-8.453111
1615126994,1.13,0.47,320.88,-0.00,20.84,-3.65,-1.67,-0.09,-0.25,-0.00,-0.00,-0.00,-0.00,321.56,41.026,-8.453111
1615126996,1.13,0.46,320.88,-0.00,20.86,-3.66,-1.63,-0.10,-0.25,-0.00,-0.00,-0.00,-0.00,321.98,41.026,-8.453111
1615126998,1.13,0.46,320.87,3.98,20.86,-3.64,-1.62,-0.09,-3.71,-0.00,-0.00,-0.00,-0.00,321.81,41.026,-8.453111
1615127000,1.14,0.46,320.87,0.37,20.87,-3.68,-1.67,-0.09,-0.25,-0.00,-0.00,-0.00,-0.00,322.37,41.026,-8.453111
1615127001,1.14,0.47,320.88,-0.00,20.87,-3.68,-1.67,-0.09,-0.25,-0.00,-0.00,-0.00,-0.00,322.45,41.026,-8.453111
1615127003,1.14,0.47,320.88,-0.00,20.87,-3.69,-1.66,-0.09,-0.25,-0.00,-0.00,-0.00,-0.00,321.53,41.026,-8.453111
1615127005,1.14,0.47,320.88,-0.00,20.88,-3.69,-1.64,-0.09,-0.25,-0.00,-0.00,-0.00,-0.00,321.81,41.026,-8.453111
1615127007,1.15,0.46,320.88,-0.00,20.89,-3.70,-1.65,-0.09,-0.25,-0.00,-0.00,-0.00,-0.00,322.16,41.026,-8.453111
1615127009,1.15,0.46,320.88,-0.00,20.90,-3.70,-1.64,-0.09,-0.25,-0.00,-0.00,-0.00,-0.00,322.65,41.026,-8.453111
1615127010,1.14,0.46,320.87,-0.00,20.90,-3.69,-1.61,-0.08,-0.25,-0.00,-0.00,-0.00,-0.00,322.34,41.026,-8.453111
1615127012,1.15,0.45,320.87,-0.00,20.91,-3.69,-1.60,-0.09,-0.25,-0.00,-0.00,-0.00,-0.00,321.90,41.026,-8.453111
1615127014,1.15,0.44,320.87,-0.00,20.91,-3.70,-1.60,-0.09,-0.25,-0.00,-0.00,-0.00,-0.00,321.97,41.026,-8.453111
1615127016,1.14,0.44,320.89,-0.00,20.91,-3.68,-1.57,-0.09,-0.25,-0.00,-0.00,-0.00,-0.00,321.88,41.026,-8.453111
1615127018,1.15,0.43,320.88,-0.00,20.91,-3.69,-1.55,-0.09,-0.25,-0.00,-0.00,-0.00,-0.00,321.62,41.026,-8.453111
1615127019,1.14,0.42,320.87,-0.00,20.91,-3.68,-1.53,-0.08,-0.25,-0.00,-0.00,-0.00,-0.00,321.66,41.026,-8.453111
1615127021,1.13,0.42,320.86,-0.00,20.91,-3.66,-1.52,-0.08,-0.25,-0.00,-0.00,-0.00,-0.00,322.58,41.026,-8.453111
1615127023,1.13,0.42,320.87,2.13,20.92,-3.68,-1.49,-0.09,-5.77,-0.00,-0.00,-0.00,-0.00,321.83,41.026,-8.453111
1615127025,1.14,0.40,320.88,8.85,20.92,-3.67,-1.48,-0.09,-9.15,-0.00,-0.00,-0.00,-0.00,321.95,41.026,-8.453111
1615127026,1.13,0.41,320.89,13.49,20.93,-3.67,-1.51,-0.10,-12.19,-0.00,-0.00,-0.00,-0.00,322.07,41.026,-8.453111
1615127028,1.14,0.41,320.87,11.70,20.93,-3.69,-1.49,-0.08,-11.41,-0.00,-0.00,-0.00,-0.00,321.79,41.026,-8.453111
1615127030,1.14,0.40,320.84,13.83,20.93,-3.67,-1.45,0.01,-16.83,-0.00,-0.00,-0.00,-0.00,320.83,41.026,-8.453111
1615127032,1.15,0.40,320.32,14.38,20.93,-3.72,-1.46,0.28,-17.30,-0.00,-0.00,-0.00,-0.00,318.41,41.026,-8.453111
1615127034,1.16,0.40,319.96,13.83,20.93,-3.72,-1.44,0.42,-14.67,-0.00,-0.00,-0.00,-0.00,319.86,41.026,-8.453111
1615127035,1.15,0.39,319.77,16.07,20.94,-3.71,-1.42,0.43,-13.81,-0.00,-0.00,-0.00,-0.00,321.87,41.026,-8.453111
1615127037,1.15,0.39,319.94,16.07,20.94,-3.72,-1.46,0.35,-16.44,-0.00,-0.00,-0.00,-0.00,322.23,41.026,-8.453111
1615127039,1.15,0.40,320.06,17.51,20.95,-3.70,-1.48,0.29,-18.32,-0.00,-0.00,-0.00,-0.00,321.74,41.026,-8.453111
1615127041,1.15,0.40,320.20,17.32,20.96,-3.71,-1.45,0.22,-18.08,-0.00,-0.00,-0.00,-0.00,321.82,41.026,-8.453111
1615127042,1.15,0.39,320.31,18.66,20.96,-3.71,-1.42,0.17,-18.88,-0.00,-0.00,-0.00,-0.00,321.69,41.026,-8.453111
1615127044,1.15,0.40,320.40,18.66,20.96,-3.72,-1.46,0.13,-17.80,-0.00,-0.00,-0.00,-0.00,321.91,41.026,-8.453111
1615127046,1.16,0.39,320.48,20.16,20.96,-3.73,-1.44,0.09,-19.87,-0.00,-0.00,-0.00,-0.00,322.05,41.026,-8.453111
1615127048,1.22,0.39,326.58,18.22,20.97,-4.49,0.28,-15.51,-19.53,-0.00,-0.00,-0.00,-0.00,329.07,41.026,-8.453111
1615127050,1.38,-0.11,351.63,20.90,20.97,-4.33,0.52,-15.44,-22.35,-0.00,-0.00,-0.00,-0.00,352.63,41.026,-8.453111
1615127051,1.33,-0.05,351.49,21.31,20.97,-4.19,0.35,-15.38,-23.29,-0.00,-0.00,-0.00,-0.00,350.90,41.026,-8.453111
1615127053,1.28,-0.00,351.41,20.66,20.96,-4.06,0.21,-15.34,-21.67,-0.00,-0.00,-0.00,-0.00,352.82,41.026,-8.453111
1615127055,1.27,0.02,354.37,24.22,20.96,-4.04,0.15,-16.93,-22.42,-0.00,-0.00,-0.00,-0.00,355.36,41.026,-8.453111
1615127057,1.24,0.03,354.49,23.04,20.96,-3.92,-0.06,-16.88,-24.18,-0.00,-0.00,-0.00,-0.00,354.81,41.026,-8.453111
1615127059,1.20,0.06,354.38,24.34,20.96,-3.82,-0.42,-16.82,-26.17,-0.00,-0.00,-0.00,-0.00,355.14,41.026,-8.453111
1615127060,1.18,0.08,354.29,26.36,20.96,-3.76,-0.53,-16.78,-25.46,-0.00,-0.00,-0.00,-0.00,354.59,41.026,-8.453111
1615127062,1.16,0.09,354.25,16.70,20.96,-3.73,-0.55,-16.77,-18.86,-0.00,-0.00,-0.00,-0.00,355.32,41.026,-8.453111
1615127064,1.16,0.11,354.21,14.16,20.95,-3.72,-0.64,-16.73,-13.80,-0.00,-0.00,-0.00,-0.00,354.95,41.026,-8.453111
1615127066,1.15,0.13,354.12,6.60,20.95,-3.69,-0.65,-16.70,-7.63,-0.00,-0.00,-0.00,-0.00,354.94,41.026,-8.453111
1615127068,1.13,0.14,354.07,19.07,20.94,-3.66,-0.68,-16.67,-21.15,-0.00,-0.00,-0.00,-0.00,354.71,41.026,-8.453111
1615127069,1.13,0.15,354.02,24.98,20.94,-3.62,-0.72,-16.65,-27.99,-0.00,-0.00,-0.00,-0.00,354.90,41.026,-8.453111
1615127071,1.10,0.15,353.99,27.03,20.94,-3.56,-0.70,-16.64,-27.26,-0.00,-0.00,-0.00,-0.00,354.24,41.026,-8.453111
1615127073,1.10,0.16,354.01,32.49,20.94,-3.54,-0.71,-16.65,-29.35,-0.00,-0.00,-0.00,-0.00,355.04,41.026,-8.453111
1615127075,1.09,0.15,353.96,29.61,20.94,-3.52,-0.71,-16.62,-29.32,-0.00,-0.00,-0.00,-0.00,354.87,41.026,-8.453111
1615127076,1.08,0.15,353.92,36.79,20.94,-3.50,-0.72,-16.60,-34.41,-0.00,-0.00,-0.00,-0.00,353.86,41.026,-8.453111
1615127078,1.07,0.16,353.90,36.60,20.94,-3.48,-0.74,-16.59,-32.01,-0.00,-0.00,-0.00,-0.00,354.86,41.026,-8.453111
1615127080,1.07,0.17,353.87,30.01,20.94,-3.44,-0.78,-16.58,-29.82,-0.00,-0.00,-0.00,-0.00,353.86,41.026,-8.453111
1615127082,1.06,0.17,353.85,27.74,20.93,-3.42,-0.77,-16.59,-25.89,-0.00,-0.00,-0.00,-0.00,355.91,41.026,-8.453111
1615127084,1.06,0.17,353.88,24.89,20.93,-3.43,-0.77,-16.59,-24.75,-0.00,-0.00,-0.00,-0.00,355.17,41.026,-8.453111
1615127085,1.05,0.17,353.86,23.27,20.93,-3.43,-0.78,-16.57,-25.72,-0.00,-0.00,-0.00,-0.00,354.85,41.026,-8.453111
1615127087,1.05,0.17,353.82,29.20,20.93,-3.43,-0.76,-16.55,-25.27,-0.00,-0.00,-0.00,-0.00,354.35,41.026,-8.453111
1615127089,1.05,0.15,353.80,21.67,20.93,-3.41,-0.74,-16.54,-22.03,-0.00,-0.00,-0.00,-0.00,354.84,41.026,-8.453111
1615127091,1.05,0.16,353.77,18.50,20.93,-3.42,-0.77,-16.47,-20.85,-0.00,-0.00,-0.00,-0.00,353.91,41.026,-8.453111
1615127092,1.06,0.18,353.66,20.13,20.93,-3.43,-0.82,-16.50,-22.49,-0.00,-0.00,-0.00,-0.00,355.28,41.026,-8.453111
1615127094,1.05,0.19,353.58,17.03,20.93,-3.44,-0.82,-16.44,-18.85,-0.00,-0.00,-0.00,-0.00,355.01,41.026,-8.453111
1615127096,1.05,0.19,353.58,21.62,20.94,-3.42,-0.83,-16.44,-21.97,-0.00,-0.00,-0.00,-0.00,354.31,41.026,-8.453111
1615127098,1.05,0.19,353.60,23.49,20.94,-3.42,-0.87,-16.45,-25.49,-0.00,-0.00,-0.00,-0.00,354.54,41.026,-8.453111
1615127100,1.04,0.20,353.61,25.18,20.96,-3.40,-0.85,-16.45,-23.95,-0.00,-0.00,-0.00,-0.00,354.84,41.026,-8.453111
1615127101,1.05,0.20,353.62,25.71,20.96,-3.40,-0.87,-16.47,-23.83,-0.00,-0.00,-0.00,-0.00,354.32,41.026,-8.453111
1615127103,1.05,0.21,353.52,21.98,20.96,-3.41,-0.89,-16.42,-24.40,-0.00,-0.00,-0.00,-0.00,353.98,41.026,-8.453111
1615127105,1.06,0.21,353.55,23.42,20.97,-3.43,-0.87,-16.43,-22.01,-0.00,-0.00,-0.00,-0.00,355.00,41.026,-8.453111
1615127107,1.05,0.20,353.57,24.43,20.97,-3.43,-0.84,-16.45,-27.43,-0.00,-0.00,-0.00,-0.00,355.44,41.026,-8.453111
1615127109,1.06,0.19,353.63,27.43,20.97,-3.43,-0.83,-16.47,-26.56,-0.00,-0.00,-0.00,-0.00,354.62,41.026,-8.453111
1615127110,1.05,0.18,353.65,26.82,20.96,-3.40,-0.81,-16.47,-27.31,-0.00,-0.00,-0.00,-0.00,354.84,41.026,-8.453111
1615127112,1.05,0.18,353.69,32.72,20.98,-3.42,-0.81,-16.50,-32.43,-0.00,-0.00,-0.00,-0.00,355.00,41.026,-8.453111
1615127114,1.05,0.18,353.73,35.17,20.97,-3.45,-0.80,-16.51,-33.07,-0.00,-0.00,-0.00,-0.00,353.95,41.026,-8.453111
1615127116,1.05,0.17,353.59,31.67,20.97,-3.41,-0.76,-16.45,-30.98,-0.00,-0.00,-0.00,-0.00,355.00,41.026,-8.453111
1615127117,1.05,0.16,353.63,28.15,20.97,-3.40,-0.75,-16.48,-30.32,-0.00,-0.00,-0.00,-0.00,354.99,41.026,-8.453111
1615127119,1.05,0.16,353.70,30.76,20.97,-3.41,-0.76,-16.49,-32.84,-0.00,-0.00,-0.00,-0.00,354.99,41.026,-8.453111
1615127121,1.05,0.17,353.69,26.79,20.98,-3.43,-0.75,-16.49,-29.25,-0.00,-0.00,-0.00,-0.00,355.16,41.026,-8.453111
1615127123,1.06,0.15,353.68,34.41,20.98,-3.41,-0.71,-16.49,-33.85,-0.00,-0.00,-0.00,-0.00,354.99,41.026,-8.453111
1615127125,1.06,0.15,353.69,28.97,20.98,-3.45,-0.71,-16.49,-27.82,-0.00,-0.00,-0.00,-0.00,353.95,41.026,-8.453111
1615127126,1.06,0.14,353.69,29.52,20.99,-3.45,-0.70,-16.51,-29.93,-0.00,-0.00,-0.00,-0.00,355.31,41.026,-8.453111
1615127128,1.06,0.15,353.76,24.62,20.99,-3.45,-0.70,-16.53,-25.56,-0.00,-0.00,-0.00,-0.00,355.76,41.026,-8.453111
1615127130,1.05,0.15,353.75,27.04,20.98,-3.41,-0.68,-16.52,-26.27,-0.00,-0.00,-0.00,-0.00,354.33,41.026,-8.453111
1615127132,1.05,0.13,353.74,23.74,20.98,-3.42,-0.65,-16.52,-24.09,-0.00,-0.00,-0.00,-0.00,354.83,41.026,-8.453111
1615127134,1.05,0.12,353.60,24.75,20.98,-3.38,-0.61,-16.39,-25.00,-0.00,-0.00,-0.00,-0.00,354.17,41.026,-8.453111
1615127135,1.04,0.14,353.48,28.96,20.97,-3.40,-0.67,-16.40,-31.84,-0.00,-0.00,-0.00,-0.00,354.99,41.026,-8.453111
1615127137,1.05,0.13,353.51,35.77,20.97,-3.41,-0.64,-16.43,-35.35,-0.00,-0.00,-0.00,-0.00,354.52,41.026,-8.453111
1615127139,1.05,0.13,353.60,39.53,20.97,-3.42,-0.65,-16.46,-39.78,-0.00,-0.00,-0.00,-0.00,354.99,41.026,-8.453111
1615127141,1.05,0.13,353.63,36.97,20.97,-3.39,-0.68,-16.46,-40.96,-0.00,-0.00,-0.00,-0.00,353.94,41.026,-8.453111
1615127142,1.05,0.14,353.63,32.87,20.97,-3.41,-0.69,-16.46,-35.52,-0.00,-0.00,-0.00,-0.00,355.12,41.026,-8.453111
1615127144,1.05,0.14,353.62,40.04,20.97,-3.41,-0.67,-16.39,-41.31,-0.00,-0.00,-0.00,-0.00,354.15,41.026,-8.453111
1615127146,1.05,0.14,353.38,43.07,20.97,-3.41,-0.67,-16.35,-42.69,-0.00,-0.00,-0.00,-0.00,355.16,41.026,-8.453111
1615127148,1.06,0.13,353.47,37.28,20.96,-3.40,-0.66,-16.40,-36.57,-0.00,-0.00,-0.00,-0.00,354.83,41.026,-8.453111
1615127150,1.05,0.13,353.55,39.56,20.96,-3.39,-0.65,-16.43,-38.75,-0.00,-0.00,-0.00,-0.00,354.73,41.026,-8.453111
1615127151,1.05,0.13,353.57,36.27,20.96,-3.42,-0.66,-16.44,-35.93,-0.00,-0.00,-0.00,-0.00,354.27,41.026,-8.453111
1615127153,1.06,0.14,353.59,29.21,20.96,-3.43,-0.67,-16.45,-31.55,-0.00,-0.00,-0.00,-0.00,354.85,41.026,-8.453111
1615127155,1.05,0.14,353.61,21.86,20.95,-3.43,-0.70,-16.46,-18.81,-0.00,-0.00,-0.00,-0.00,354.99,41.026,-8.453111
1615127157,1.06,0.14,353.63,14.72,20.96,-3.47,-0.67,-16.48,-17.24,-0.00,-0.00,-0.00,-0.00,354.16,41.026,-8.453111
1615127159,1.07,0.14,353.70,45.37,20.96,-3.47,-0.69,-16.50,-53.16,-0.00,-0.00,-0.00,-0.00,355.75,41.026,-8.453111
1615127160,1.07,0.15,353.70,48.37,20.95,-3.47,-0.72,-16.50,-39.61,-0.00,-0.00,-0.00,-0.00,354.19,41.026,-8.453111
1615127162,1.07,0.16,353.69,20.39,20.95,-3.47,-0.75,-16.50,-17.35,-0.00,-0.00,-0.00,-0.00,355.19,41.026,-8.453111
1615127164,1.07,0.16,353.69,15.03,20.96,-3.48,-0.75,-16.50,-13.63,-0.00,-0.00,-0.00,-0.00,354.86,41.026,-8.453111
1615127166,1.07,0.17,353.69,17.73,20.96,-3.46,-0.79,-16.49,-17.44,-0.00,-0.00,-0.00,-0.00,354.12,41.026,-8.453111
1615127168,1.06,0.17,353.73,31.20,20.95,-3.45,-0.79,-16.52,-30.32,-0.00,-0.00,-0.00,-0.00,355.59,41.026,-8.453111
1615127169,1.07,0.18,353.76,38.18,20.96,-3.47,-0.83,-16.53,-41.64,-0.00,-0.00,-0.00,-0.00,354.76,41.026,-8.453111
1615127171,1.07,0.19,353.75,41.38,20.96,-3.47,-0.81,-16.53,-40.72,-0.00,-0.00,-0.00,-0.00,353.81,41.026,-8.453111
1615127173,1.07,0.19,353.62,22.97,20.96,-3.45,-0.85,-16.46,-21.50,-0.00,-0.00,-0.00,-0.00,354.70,41.026,-8.453111
1615127175,1.07,0.20,353.61,28.47,20.95,-3.46,-0.86,-16.46,-32.88,-0.00,-0.00,-0.00,-0.00,353.80,41.026,-8.453111
1615127177,1.07,0.19,353.62,40.18,20.95,-3.46,-0.85,-16.46,-43.13,-0.00,-0.00,-0.00,-0.00,355.00,41.026,-8.453111
1615127178,1.07,0.20,353.67,48.20,20.95,-3.48,-0.85,-16.49,-45.62,-0.00,-0.00,-0.00,-0.00,354.50,41.026,-8.453111
1615127180,1.07,0.19,353.71,38.55,20.95,-3.47,-0.84,-16.50,-41.44,-0.00,-0.00,-0.00,-0.00,354.85,41.026,-8.453111
1615127182,1.08,0.19,353.71,38.58,20.95,-3.48,-0.82,-16.50,-40.45,-0.00,-0.00,-0.00,-0.00,355.02,41.026,-8.453111
1615127184,1.07,0.19,353.70,37.01,20.95,-3.47,-0.85,-16.50,-36.27,-0.00,-0.00,-0.00,-0.00,354.21,41.026,-8.453111
1615127185,1.07,0.19,353.69,32.66,20.96,-3.48,-0.83,-16.50,-33.94,-0.00,-0.00,-0.00,-0.00,354.99,41.026,-8.453111
1615127187,1.07,0.19,353.71,29.24,20.95,-3.46,-0.85,-16.53,-28.80,-0.00,-0.00,-0.00,-0.00,354.61,41.026,-8.453111
1615127189,1.07,0.20,353.64,27.25,20.94,-3.48,-0.84,-16.48,-30.21,-0.00,-0.00,-0.00,-0.00,355.19,41.026,-8.453111
1615127191,1.07,0.20,353.67,22.85,20.94,-3.45,-0.85,-16.49,-19.01,-0.00,-0.00,-0.00,-0.00,355.17,41.026,-8.453111
1615127193,1.07,0.19,353.68,5.78,20.95,-3.46,-0.85,-16.48,-7.56,-0.00,-0.00,-0.00,-0.00,355.16,41.026,-8.453111
1615127194,1.07,0.18,353.66,1.08,20.96,-3.45,-0.81,-16.48,-0.25,-0.00,-0.00,-0.00,-0.00,355.01,41.026,-8.453111
1615127196,1.07,0.17,353.66,-0.00,20.96,-3.46,-0.78,-16.48,-0.25,-0.00,-0.00,-0.00,-0.00,353.97,41.026,-8.453111
1615127198,1.07,0.17,353.72,2.44,20.95,-3.45,-0.78,-16.51,-4.85,-0.00,-0.00,-0.00,-0.00,355.01,41.026,-8.453111
1615127200,1.07,0.17,353.75,22.69,20.96,-3.46,-0.77,-16.51,-29.80,-0.00,-0.00,-0.00,-0.00,353.99,41.026,-8.453111
1615127201,1.06,0.17,353.73,50.13,20.96,-3.44,-0.78,-16.52,-56.90,-0.00,-0.00,-0.00,-0.00,355.00,41.026,-8.453111
1615127203,1.05,0.17,353.73,50.67,20.96,-3.45,-0.76,-16.51,-47.75,-0.00,-0.00,-0.00,-0.00,353.94,41.026,-8.453111
1615127205,1.06,0.17,353.72,42.64,20.96,-3.45,-0.77,-16.51,-43.87,-0.00,-0.00,-0.00,-0.00,354.85,41.026,-8.453111
1615127207,1.06,0.17,353.72,45.48,20.96,-3.46,-0.76,-16.53,-42.36,-0.00,-0.00,-0.00,-0.00,355.16,41.026,-8.453111
1615127209,1.06,0.18,353.78,33.19,20.96,-3.47,-0.79,-16.54,-32.33,-0.00,-0.00,-0.00,-0.00,355.15,41.026,-8.453111
1615127210,1.07,0.18,353.76,30.68,20.97,-3.50,-0.81,-16.52,-28.86,-0.00,-0.00,-0.00,-0.00,355.17,41.026,-8.453111
1615127212,1.08,0.19,353.73,26.58,20.97,-3.49,-0.84,-16.51,-28.22,-0.00,-0.00,-0.00,-0.00,354.23,41.026,-8.453111
1615127214,1.07,0.19,353.73,28.81,20.97,-3.45,-0.79,-16.51,-28.00,-0.00,-0.00,-0.00,-0.00,355.01,41.026,-8.453111
1615127216,1.06,0.17,353.72,31.57,20.97,-3.45,-0.78,-16.51,-33.93,-0.00,-0.00,-0.00,-0.00,354.45,41.026,-8.453111
1615127218,1.06,0.17,353.73,33.07,20.97,-3.42,-0.76,-16.52,-33.38,-0.00,-0.00,-0.00,-0.00,355.17,41.026,-8.453111
1615127219,1.06,0.16,353.75,29.67,20.97,-3.43,-0.77,-16.52,-30.58,-0.00,-0.00,-0.00,-0.00,355.00,41.026,-8.453111
1615127221,1.06,0.17,353.73,29.59,20.98,-3.43,-0.77,-16.51,-26.52,-0.00,-0.00,-0.00,-0.00,354.46,41.026,-8.453111
1615127223,1.06,0.17,353.71,22.83,20.98,-3.44,-0.77,-16.50,-22.14,-0.00,-0.00,-0.00,-0.00,354.82,41.026,-8.453111
1615127225,1.06,0.17,353.69,12.77,20.98,-3.43,-0.75,-16.49,-12.53,-0.00,-0.00,-0.00,-0.00,355.01,41.026,-8.453111
1615127226,1.06,0.16,353.67,11.81,20.99,-3.44,-0.73,-16.49,-12.41,-0.00,-0.00,-0.00,-0.00,355.17,41.026,-8.453111
1615127228,1.06,0.16,353.71,15.84,20.99,-3.44,-0.74,-16.52,-15.56,-0.00,-0.00,-0.00,-0.00,355.32,41.026,-8.453111
1615127230,1.06,0.15,353.75,17.73,21.00,-3.43,-0.71,-16.52,-21.21,-0.00,-0.00,-0.00,-0.00,355.01,41.026,-8.453111
1615127232,1.06,0.15,353.73,36.74,21.00,-3.44,-0.72,-16.52,-41.51,-0.00,-0.00,-0.00,-0.00,355.15,41.026,-8.453111
1615127234,1.06,0.15,353.74,38.70,21.01,-3.45,-0.72,-16.52,-39.49,-0.00,-0.00,-0.00,-0.00,355.14,41.026,-8.453111
1615127235,1.08,0.15,353.74,26.08,21.01,-3.49,-0.69,-16.51,-21.13,-0.00,-0.00,-0.00,-0.00,354.16,41.026,-8.453111
1615127237,1.07,0.13,353.75,15.96,21.01,-3.49,-0.67,-16.53,-15.12,-0.00,-0.00,-0.00,-0.00,355.42,41.026,-8.453111
1615127239,1.08,0.15,353.78,28.81,21.01,-3.51,-0.71,-16.54,-30.78,-0.00,-0.00,-0.00,-0.00,354.64,41.026,-8.453111
1615127241,1.08,0.14,353.77,25.15,21.01,-3.50,-0.70,-16.53,-23.71,-0.00,-0.00,-0.00,-0.00,354.85,41.026,-8.453111
1615127243,1.08,0.15,353.75,28.15,21.02,-3.50,-0.71,-16.53,-29.53,-0.00,-0.00,-0.00,-0.00,354.86,41.026,-8.453111
1615127244,1.09,0.15,353.74,42.55,21.03,-3.52,-0.73,-16.52,-41.71,-0.00,-0.00,-0.00,-0.00,354.71,41.026,-8.453111
1615127246,1.10,0.15,353.73,41.24,21.03,-3.55,-0.74,-16.52,-46.38,-0.00,-0.00,-0.00,-0.00,355.04,41.026,-8.453111
1615127248,1.09,0.15,353.77,57.68,21.04,-3.53,-0.75,-16.54,-58.57,-0.00,-0.00,-0.00,-0.00,354.37,41.026,-8.453111
1615127250,1.09,0.16,353.79,67.78,21.04,-3.53,-0.75,-16.54,-75.03,-0.00,-0.00,-0.00,-0.00,355.20,41.026,-8.453111
1615127252,1.09,0.17,353.79,80.16,21.04,-3.51,-0.77,-16.54,-79.38,-0.00,-0.00,-0.00,-0.00,353.96,41.026,-8.453111
1615127253,1.08,0.17,353.76,71.78,21.05,-3.51,-0.78,-16.53,-67.95,-0.00,-0.00,-0.00,-0.00,354.87,41.026,-8.453111
1615127255,1.08,0.17,353.76,60.14,21.06,-3.53,-0.78,-16.52,-58.21,-0.00,-0.00,-0.00,-0.00,354.51,41.026,-8.453111
1615127257,1.09,0.17,353.75,51.93,21.06,-3.54,-0.76,-16.54,-51.74,-0.00,-0.00,-0.00,-0.00,354.71,41.026,-8.453111
1615127259,1.10,0.17,353.66,40.78,21.06,-3.57,-0.75,-16.48,-38.52,-0.00,-0.00,-0.00,-0.00,354.89,41.026,-8.453111
1615127260,1.10,0.16,353.67,36.37,21.07,-3.56,-0.74,-16.48,-40.33,-0.00,-0.00,-0.00,-0.00,354.48,41.026,-8.453111
1615127262,1.10,0.15,353.68,36.69,21.07,-3.53,-0.71,-16.49,-39.74,-0.00,-0.00,-0.00,-0.00,355.05,41.026,-8.453111
1615127264,1.10,0.15,353.70,30.65,21.09,-3.55,-0.71,-16.50,-32.52,-0.00,-0.00,-0.00,-0.00,355.03,41.026,-8.453111
1615127266,1.10,0.15,353.70,38.12,21.08,-3.55,-0.72,-16.50,-38.00,-0.00,-0.00,-0.00,-0.00,355.03,41.026,-8.453111
1615127268,1.09,0.16,353.72,30.28,21.09,-3.56,-0.75,-16.52,-31.70,-0.00,-0.00,-0.00,-0.00,354.12,41.026,-8.453111
1615127269,1.10,0.17,353.74,32.22,21.10,-3.56,-0.80,-16.52,-29.93,-0.00,-0.00,-0.00,-0.00,355.21,41.026,-8.453111
1615127271,1.10,0.17,353.72,28.53,21.10,-3.58,-0.79,-16.51,-31.57,-0.00,-0.00,-0.00,-0.00,353.82,41.026,-8.453111
1615127273,1.10,0.17,353.72,24.08,21.09,-3.59,-0.79,-16.51,-26.27,-0.00,-0.00,-0.00,-0.00,354.88,41.026,-8.453111
1615127275,1.12,0.17,353.71,20.32,21.10,-3.62,-0.76,-16.51,-19.09,-0.00,-0.00,-0.00,-0.00,354.21,41.026,-8.453111
1615127277,1.12,0.16,353.71,23.07,21.11,-3.63,-0.74,-16.51,-21.22,-0.00,-0.00,-0.00,-0.00,354.70,41.026,-8.453111
1615127278,1.12,0.17,353.78,32.71,21.12,-3.60,-0.75,-16.54,-38.88,-0.00,-0.00,-0.00,-0.00,355.30,41.026,-8.453111
1615127280,1.11,0.17,353.78,52.56,21.13,-3.57,-0.74,-16.53,-55.04,-0.00,-0.00,-0.00,-0.00,355.03,41.026,-8.453111
1615127282,1.10,0.15,353.76,59.90,21.14,-3.57,-0.70,-16.53,-59.10,-0.00,-0.00,-0.00,-0.00,355.04,41.026,-8.453111
1615127284,1.10,0.14,353.75,56.17,21.14,-3.58,-0.69,-16.52,-57.30,-0.00,-0.00,-0.00,-0.00,354.59,41.026,-8.453111
1615127285,1.11,0.13,353.74,59.51,21.14,-3.60,-0.64,-16.52,-61.67,-0.00,-0.00,-0.00,-0.00,355.04,41.026,-8.453111
1615127287,1.11,0.13,353.75,63.18,21.15,-3.58,-0.64,-16.54,-63.97,-0.00,-0.00,-0.00,-0.00,355.35,41.026,-8.453111
1615127289,1.10,0.13,353.80,59.01,21.15,-3.56,-0.64,-16.55,-59.99,-0.00,-0.00,-0.00,-0.00,355.03,41.026,-8.453111
1615127291,1.11,0.14,353.82,48.13,21.16,-3.59,-0.66,-16.56,-52.68,-0.00,-0.00,-0.00,-0.00,355.03,41.026,-8.453111
1615127293,1.10,0.13,353.81,55.36,21.16,-3.57,-0.65,-16.54,-58.42,-0.00,-0.00,-0.00,-0.00,355.03,41.026,-8.453111
1615127294,1.11,0.13,353.77,48.07,21.17,-3.58,-0.64,-16.53,-49.45,-0.00,-0.00,-0.00,-0.00,355.03,41.026,-8.453111
1615127296,1.11,0.11,353.76,43.79,21.17,-3.56,-0.61,-16.53,-45.20,-0.00,-0.00,-0.00,-0.00,354.73,41.026,-8.453111
1615127298,1.10,0.12,353.76,39.59,21.18,-3.56,-0.64,-16.52,-40.50,-0.00,-0.00,-0.00,-0.00,354.40,41.026,-8.453111
1615127300,1.10,0.12,353.75,37.72,21.19,-3.55,-0.64,-16.52,-37.82,-0.00,-0.00,-0.00,-0.00,355.04,41.026,-8.453111
1615127301,1.10,0.12,353.74,34.43,21.20,-3.56,-0.63,-16.51,-37.53,-0.00,-0.00,-0.00,-0.00,354.50,41.026,-8.453111
1615127303,1.09,0.13,353.71,36.63,21.20,-3.52,-0.63,-16.50,-35.83,-0.00,-0.00,-0.00,-0.00,355.19,41.026,-8.453111
1615127305,1.08,0.12,353.70,34.81,21.21,-3.50,-0.61,-16.49,-33.59,-0.00,-0.00,-0.00,-0.00,353.99,41.026,-8.453111
1615127307,1.08,0.11,353.70,28.33,21.22,-3.51,-0.55,-16.50,-27.71,-0.00,-0.00,-0.00,-0.00,355.31,41.026,-8.453111
1615127309,1.09,0.09,353.75,31.59,21.23,-3.52,-0.56,-16.53,-33.68,-0.00,-0.00,-0.00,-0.00,355.48,41.026,-8.453111
1615127310,1.09,0.10,353.78,49.38,21.24,-3.52,-0.58,-16.55,-52.50,-0.00,-0.00,-0.00,-0.00,354.18,41.026,-8.453111
1615127312,1.09,0.11,353.79,65.38,21.25,-3.54,-0.58,-16.54,-65.79,-0.00,-0.00,-0.00,-0.00,355.04,41.026,-8.453111
1615127314,1.09,0.11,353.77,68.80,21.25,-3.53,-0.58,-16.54,-69.59,-0.00,-0.00,-0.00,-0.00,353.87,41.026,-8.453111
1615127316,1.09,0.11,353.77,72.53,21.25,-3.54,-0.58,-16.53,-72.58,-0.00,-0.00,-0.00,-0.00,353.97,41.026,-8.453111
1615127318,1.10,0.11,353.77,71.45,21.25,-3.55,-0.60,-16.54,-67.92,-0.00,-0.00,-0.00,-0.00,355.79,41.026,-8.453111
1615127319,1.09,0.12,353.77,58.63,21.25,-3.55,-0.62,-16.54,-54.68,-0.00,-0.00,-0.00,-0.00,355.19,41.026,-8.453111
1615127321,1.10,0.12,353.78,51.21,21.25,-3.53,-0.60,-16.54,-52.58,-0.00,-0.00,-0.00,-0.00,354.90,41.026,-8.453111
1615127323,1.09,0.11,353.75,54.56,21.26,-3.55,-0.60,-16.52,-58.76,-0.00,-0.00,-0.00,-0.00,355.31,41.026,-8.453111
1615127325,1.10,0.12,353.74,57.80,21.26,-3.55,-0.60,-16.52,-59.67,-0.00,-0.00,-0.00,-0.00,355.02,41.026,-8.453111
1615127327,1.10,0.11,353.72,60.50,21.26,-3.57,-0.60,-16.51,-60.77,-0.00,-0.00,-0.00,-0.00,353.78,41.026,-8.453111
1615127328,1.11,0.11,353.77,62.75,21.26,-3.57,-0.57,-16.53,-61.85,-0.00,-0.00,-0.00,-0.00,355.03,41.026,-8.453111
1615127330,1.10,0.10,353.76,61.11,21.26,-3.55,-0.58,-16.47,-62.39,-0.00,-0.00,-0.00,-0.00,355.03,41.026,-8.453111
1615127332,1.10,0.11,353.64,62.27,21.26,-3.56,-0.60,-16.47,-59.54,-0.00,-0.00,-0.00,-0.00,354.88,41.026,-8.453111
1615127334,1.11,0.12,353.64,59.78,21.26,-3.58,-0.64,-16.47,-59.00,-0.00,-0.00,-0.00,-0.00,354.51,41.026,-8.453111
1615127335,1.10,0.13,353.63,60.07,21.27,-3.57,-0.66,-16.47,-59.13,-0.00,-0.00,-0.00,-0.00,355.03,41.026,-8.453111
1615127337,1.10,0.13,353.64,53.08,21.27,-3.56,-0.68,-16.49,-54.38,-0.00,-0.00,-0.00,-0.00,354.42,41.026,-8.453111
1615127339,1.10,0.14,353.71,55.17,21.27,-3.58,-0.69,-16.52,-57.67,-0.00,-0.00,-0.00,-0.00,355.07,41.026,-8.453111
1615127341,1.11,0.14,353.75,55.70,21.27,-3.56,-0.68,-16.52,-57.70,-0.00,-0.00,-0.00,-0.00,355.04,41.026,-8.453111
1615127343,1.09,0.14,353.74,59.46,21.27,-3.55,-0.66,-16.51,-61.96,-0.00,-0.00,-0.00,-0.00,354.35,41.026,-8.453111
1615127344,1.10,0.13,353.73,59.56,21.27,-3.55,-0.65,-16.51,-61.41,-0.00,-0.00,-0.00,-0.00,355.04,41.026,-8.453111
1615127346,1.09,0.13,353.72,53.12,21.27,-3.53,-0.67,-16.51,-54.97,-0.00,-0.00,-0.00,-0.00,354.88,41.026,-8.453111
1615127348,1.09,0.14,353.75,60.20,21.27,-3.50,-0.67,-16.54,-61.01,-0.00,-0.00,-0.00,-0.00,355.76,41.026,-8.453111
1615127350,1.08,0.14,353.78,56.27,21.27,-3.49,-0.67,-16.53,-57.03,-0.00,-0.00,-0.00,-0.00,354.69,41.026,-8.453111
1615127352,1.08,0.14,353.75,60.63,21.27,-3.51,-0.67,-16.52,-59.80,-0.00,-0.00,-0.00,-0.00,355.00,41.026,-8.453111
1615127353,1.09,0.13,353.74,60.42,21.27,-3.52,-0.66,-16.52,-60.63,-0.00,-0.00,-0.00,-0.00,355.01,41.026,-8.453111
1615127355,1.09,0.13,353.75,61.48,21.27,-3.55,-0.64,-16.52,-60.69,-0.00,-0.00,-0.00,-0.00,354.51,41.026,-8.453111
1615127357,1.08,0.13,353.75,58.11,21.26,-3.49,-0.65,-16.52,-60.10,-0.00,-0.00,-0.00,-0.00,355.18,41.026,-8.453111
1615127359,1.08,0.13,353.78,54.28,21.26,-3.50,-0.66,-16.55,-56.97,-0.00,-0.00,-0.00,-0.00,354.26,41.026,-8.453111
1615127360,1.08,0.14,353.78,53.18,21.26,-3.53,-0.66,-16.54,-53.36,-0.00,-0.00,-0.00,-0.00,353.93,41.026,-8.453111
1615127362,1.08,0.13,353.76,53.65,21.26,-3.51,-0.63,-16.53,-52.72,-0.00,-0.00,-0.00,-0.00,355.01,41.026,-8.453111
1615127364,1.09,0.13,353.74,50.82,21.26,-3.53,-0.66,-16.52,-51.56,-0.00,-0.00,-0.00,-0.00,355.03,41.026,-8.453111
1615127366,1.09,0.13,353.72,47.49,21.26,-3.52,-0.66,-16.51,-47.72,-0.00,-0.00,-0.00,-0.00,354.31,41.026,-8.453111
1615127368,1.08,0.13,353.72,42.99,21.25,-3.51,-0.69,-16.52,-44.48,-0.00,-0.00,-0.00,-0.00,355.52,41.026,-8.453111
1615127369,1.08,0.14,353.78,40.95,21.25,-3.52,-0.70,-16.54,-42.82,-0.00,-0.00,-0.00,-0.00,355.31,41.026,-8.453111
1615127371,1.09,0.15,353.77,42.55,21.26,-3.51,-0.72,-16.53,-39.73,-0.00,-0.00,-0.00,-0.00,354.33,41.026,-8.453111
1615127373,1.09,0.14,353.74,42.65,21.26,-3.53,-0.68,-16.52,-43.89,-0.00,-0.00,-0.00,-0.00,354.66,41.026,-8.453111
1615127375,1.09,0.13,353.72,46.01,21.26,-3.54,-0.67,-16.44,-48.96,-0.00,-0.00,-0.00,-0.00,354.55,41.026,-8.453111
1615127377,1.09,0.13,353.59,57.58,21.26,-3.52,-0.68,-16.45,-59.96,-0.00,-0.00,-0.00,-0.00,355.01,41.026,-8.453111
1615127378,1.08,0.13,353.63,58.58,21.26,-3.51,-0.67,-16.47,-60.67,-0.00,-0.00,-0.00,-0.00,355.18,41.026,-8.453111
1615127380,1.08,0.13,353.67,56.22,21.26,-3.50,-0.63,-16.49,-57.61,-0.00,-0.00,-0.00,-0.00,354.57,41.026,-8.453111
1615127382,1.08,0.13,353.66,54.75,21.26,-3.50,-0.66,-16.48,-54.98,-0.00,-0.00,-0.00,-0.00,354.85,41.026,-8.453111
1615127384,1.08,0.13,353.66,54.31,21.26,-3.52,-0.64,-16.48,-54.43,-0.00,-0.00,-0.00,-0.00,354.29,41.026,-8.453111
1615127386,1.08,0.13,353.66,51.54,21.26,-3.50,-0.67,-16.47,-51.81,-0.00,-0.00,-0.00,-0.00,354.23,41.026,-8.453111
1615127387,1.08,0.14,353.64,47.36,21.26,-3.52,-0.68,-16.48,-49.70,-0.00,-0.00,-0.00,-0.00,354.43,41.026,-8.453111
1615127389,1.09,0.15,353.70,54.67,21.27,-3.53,-0.72,-16.51,-56.15,-0.00,-0.00,-0.00,-0.00,355.33,41.026,-8.453111
1615127391,1.10,0.15,353.72,57.62,21.26,-3.55,-0.68,-16.51,-57.31,-0.00,-0.00,-0.00,-0.00,354.27,41.026,-8.453111
1615127393,1.10,0.14,353.71,58.82,21.27,-3.57,-0.66,-16.50,-59.62,-0.00,-0.00,-0.00,-0.00,355.03,41.026,-8.453111
1615127394,1.10,0.13,353.71,63.22,21.27,-3.57,-0.65,-16.51,-64.45,-0.00,-0.00,-0.00,-0.00,355.19,41.026,-8.453111
1615127396,1.10,0.13,353.70,61.97,21.27,-3.56,-0.66,-16.50,-61.06,-0.00,-0.00,-0.00,-0.00,354.82,41.026,-8.453111
1615127398,1.10,0.13,353.73,60.86,21.27,-3.56,-0.63,-16.51,-60.06,-0.00,-0.00,-0.00,-0.00,354.52,41.026,-8.453111
1615127400,1.11,0.12,353.73,57.28,21.27,-3.56,-0.64,-16.52,-55.95,-0.00,-0.00,-0.00,-0.00,355.10,41.026,-8.453111
1615127402,1.10,0.13,353.60,59.06,21.27,-3.56,-0.67,-16.45,-59.41,-0.00,-0.00,-0.00,-0.00,354.12,41.026,-8.453111
1615127403,1.10,0.13,353.62,58.84,21.28,-3.56,-0.65,-16.46,-60.85,-0.00,-0.00,-0.00,-0.00,355.20,41.026,-8.453111
1615127405,1.10,0.12,353.63,64.04,21.28,-3.55,-0.64,-16.47,-63.28,-0.00,-0.00,-0.00,-0.00,354.28,41.026,-8.453111
1615127407,1.09,0.13,353.64,56.21,21.29,-3.55,-0.64,-16.47,-57.63,-0.00,-0.00,-0.00,-0.00,355.03,41.026,-8.453111
1615127409,1.10,0.13,353.68,64.48,21.29,-3.56,-0.64,-16.50,-63.11,-0.00,-0.00,-0.00,-0.00,355.04,41.026,-8.453111
1615127411,1.10,0.12,353.73,69.59,21.30,-3.57,-0.61,-16.52,-71.90,-0.00,-0.00,-0.00,-0.00,355.18,41.026,-8.453111
1615127412,1.11,0.11,353.75,76.73,21.29,-3.57,-0.57,-16.52,-74.82,-0.00,-0.00,-0.00,-0.00,353.91,41.026,-8.453111
1615127414,1.10,0.11,353.74,72.52,21.30,-3.57,-0.61,-16.52,-72.29,-0.00,-0.00,-0.00,-0.00,354.04,41.026,-8.453111
1615127416,1.10,0.12,353.74,67.15,21.29,-3.55,-0.64,-16.52,-67.43,-0.00,-0.00,-0.00,-0.00,354.37,41.026,-8.453111
1615127418,1.10,0.12,353.72,69.37,21.29,-3.55,-0.62,-16.53,-69.20,-0.00,-0.00,-0.00,-0.00,355.18,41.026,-8.453111
1615127419,1.09,0.12,353.77,66.58,21.30,-3.54,-0.65,-16.53,-65.80,-0.00,-0.00,-0.00,-0.00,354.11,41.026,-8.453111
1615127421,1.10,0.14,353.75,59.95,21.31,-3.56,-0.66,-16.52,-59.52,-0.00,-0.00,-0.00,-0.00,353.99,41.026,-8.453111
1615127423,1.09,0.12,353.73,63.56,21.31,-3.54,-0.62,-16.51,-64.22,-0.00,-0.00,-0.00,-0.00,355.01,41.026,-8.453111
1615127425,1.10,0.12,353.73,62.73,21.32,-3.57,-0.60,-16.46,-62.01,-0.00,-0.00,-0.00,-0.00,354.33,41.026,-8.453111
1615127427,1.11,0.12,353.62,59.26,21.33,-3.61,-0.61,-16.40,-57.40,-0.00,-0.00,-0.00,-0.00,355.36,41.026,-8.453111
1615127428,1.12,0.11,353.56,65.03,21.33,-3.60,-0.58,-16.45,-67.73,-0.00,-0.00,-0.00,-0.00,354.45,41.026,-8.453111
1615127430,1.11,0.10,353.64,62.11,21.33,-3.60,-0.58,-16.47,-59.58,-0.00,-0.00,-0.00,-0.00,354.88,41.026,-8.453111
1615127432,1.12,0.10,353.65,66.48,21.33,-3.61,-0.55,-16.48,-65.15,-0.00,-0.00,-0.00,-0.00,355.21,41.026,-8.453111
1615127434,1.11,0.09,353.65,68.43,21.33,-3.58,-0.53,-16.47,-71.33,-0.00,-0.00,-0.00,-0.00,353.99,41.026,-8.453111
1615127435,1.10,0.09,353.65,63.30,21.34,-3.56,-0.51,-16.48,-63.36,-0.00,-0.00,-0.00,-0.00,355.20,41.026,-8.453111
1615127437,1.10,0.09,353.65,65.12,21.34,-3.57,-0.54,-16.48,-66.57,-0.00,-0.00,-0.00,-0.00,354.31,41.026,-8.453111
1615127439,1.11,0.09,353.69,65.61,21.34,-3.57,-0.55,-16.50,-66.49,-0.00,-0.00,-0.00,-0.00,355.98,41.026,-8.453111
1615127441,1.11,0.09,353.71,68.94,21.34,-3.59,-0.54,-16.51,-69.22,-0.00,-0.00,-0.00,-0.00,354.36,41.026,-8.453111
1615127443,1.11,0.10,353.71,65.24,21.34,-3.59,-0.57,-16.51,-65.39,-0.00,-0.00,-0.00,-0.00,355.18,41.026,-8.453111
1615127444,1.11,0.11,353.71,64.52,21.34,-3.56,-0.59,-16.51,-63.23,-0.00,-0.00,-0.00,-0.00,354.29,41.026,-8.453111
1615127446,1.10,0.11,353.71,60.33,21.34,-3.55,-0.61,-16.50,-61.64,-0.00,-0.00,-0.00,-0.00,354.73,41.026,-8.453111
1615127448,1.10,0.12,353.72,61.31,21.34,-3.56,-0.62,-16.52,-62.17,-0.00,-0.00,-0.00,-0.00,354.82,41.026,-8.453111
1615127450,1.11,0.12,353.75,65.60,21.34,-3.60,-0.61,-16.52,-64.87,-0.00,-0.00,-0.00,-0.00,354.87,41.026,-8.453111
1615127452,1.12,0.13,353.73,64.57,21.34,-3.61,-0.65,-16.45,-66.38,-0.00,-0.00,-0.00,-0.00,354.05,41.026,-8.453111
1615127453,1.12,0.13,353.61,67.78,21.35,-3.62,-0.64,-16.46,-70.88,-0.00,-0.00,-0.00,-0.00,354.61,41.026,-8.453111
1615127455,1.11,0.13,353.64,70.92,21.36,-3.59,-0.65,-16.47,-69.63,-0.00,-0.00,-0.00,-0.00,354.20,41.026,-8.453111
1615127457,1.12,0.13,353.65,68.25,21.36,-3.61,-0.62,-16.48,-68.94,-0.00,-0.00,-0.00,-0.00,354.14,41.026,-8.453111
1615127459,1.13,0.12,353.69,77.56,21.37,-3.64,-0.63,-16.51,-78.65,-0.00,-0.00,-0.00,-0.00,354.02,41.026,-8.453111
1615127460,1.12,0.13,353.73,75.95,21.37,-3.62,-0.67,-16.51,-73.82,-0.00,-0.00,-0.00,-0.00,354.37,41.026,-8.453111
1615127462,1.12,0.13,353.60,76.00,21.36,-3.62,-0.63,-16.45,-72.62,-0.00,-0.00,-0.00,-0.00,354.88,41.026,-8.453111
1615127464,1.13,0.12,353.62,64.56,21.37,-3.64,-0.62,-16.46,-64.17,-0.00,-0.00,-0.00,-0.00,354.33,41.026,-8.453111
1615127466,1.13,0.12,353.64,62.50,21.36,-3.64,-0.62,-16.47,-63.74,-0.00,-0.00,-0.00,-0.00,354.37,41.026,-8.453111
1615127468,1.13,0.12,353.64,61.70,21.36,-3.63,-0.60,-16.48,-62.89,-0.00,-0.00,-0.00,-0.00,355.06,41.026,-8.453111
1615127469,1.12,0.11,353.70,59.14,21.35,-3.65,-0.61,-16.51,-61.19,-0.00,-0.00,-0.00,-0.00,355.09,41.026,-8.453111
1615127471,1.13,0.12,353.74,56.88,21.36,-3.65,-0.62,-16.52,-54.42,-0.00,-0.00,-0.00,-0.00,355.04,41.026,-8.453111
1615127473,1.13,0.12,353.74,55.56,21.35,-3.65,-0.61,-16.52,-55.79,-0.00,-0.00,-0.00,-0.00,354.90,41.026,-8.453111
1615127475,1.12,0.11,353.75,54.88,21.36,-3.61,-0.59,-16.52,-56.23,-0.00,-0.00,-0.00,-0.00,354.14,41.026,-8.453111
1615127477,1.11,0.11,353.75,55.32,21.37,-3.62,-0.58,-16.52,-54.00,-0.00,-0.00,-0.00,-0.00,355.04,41.026,-8.453111
1615127478,1.12,0.11,353.76,51.60,21.38,-3.60,-0.55,-16.55,-50.41,-0.00,-0.00,-0.00,-0.00,355.09,41.026,-8.453111
1615127480,1.11,0.10,353.80,49.12,21.39,-3.59,-0.57,-16.55,-49.35,-0.00,-0.00,-0.00,-0.00,355.05,41.026,-8.453111
1615127482,1.10,0.10,353.78,51.79,21.40,-3.56,-0.55,-16.54,-51.92,-0.00,-0.00,-0.00,-0.00,355.03,41.026,-8.453111
1615127484,1.10,0.10,353.77,56.31,21.39,-3.55,-0.54,-16.53,-56.47,-0.00,-0.00,-0.00,-0.00,355.18,41.026,-8.453111
1615127485,1.10,0.10,353.75,60.07,21.39,-3.57,-0.55,-16.52,-62.59,-0.00,-0.00,-0.00,-0.00,354.49,41.026,-8.453111
1615127487,1.11,0.10,353.74,55.16,21.40,-3.59,-0.57,-16.52,-57.29,-0.00,-0.00,-0.00,-0.00,354.63,41.026,-8.453111
1615127489,1.11,0.10,353.81,59.74,21.40,-3.57,-0.55,-16.55,-60.53,-0.00,-0.00,-0.00,-0.00,355.23,41.026,-8.453111
1615127491,1.09,0.10,353.79,67.32,21.41,-3.52,-0.57,-16.54,-68.14,-0.00,-0.00,-0.00,-0.00,355.19,41.026,-8.453111
1615127493,1.09,0.12,353.77,62.63,21.41,-3.52,-0.62,-16.53,-65.55,-0.00,-0.00,-0.00,-0.00,355.02,41.026,-8.453111
1615127494,1.10,0.12,353.76,65.99,21.41,-3.56,-0.63,-16.53,-68.10,-0.00,-0.00,-0.00,-0.00,355.02,41.026,-8.453111
1615127496,1.11,0.13,353.75,66.77,21.41,-3.58,-0.64,-16.52,-67.56,-0.00,-0.00,-0.00,-0.00,355.03,41.026,-8.453111
1615127498,1.11,0.12,353.74,62.07,21.42,-3.59,-0.58,-16.52,-61.89,-0.00,-0.00,-0.00,-0.00,354.33,41.026,-8.453111
1615127500,1.11,0.11,353.75,59.39,21.42,-3.56,-0.60,-16.53,-59.57,-0.00,-0.00,-0.00,-0.00,354.49,41.026,-8.453111
1615127501,1.10,0.11,353.75,56.84,21.42,-3.57,-0.58,-16.52,-53.33,-0.00,-0.00,-0.00,-0.00,355.01,41.026,-8.453111
1615127503,1.10,0.12,353.75,53.40,21.42,-3.57,-0.61,-16.52,-53.68,-0.00,-0.00,-0.00,-0.00,354.78,41.026,-8.453111
1615127505,1.11,0.11,353.74,55.66,21.43,-3.58,-0.60,-16.52,-56.44,-0.00,-0.00,-0.00,-0.00,354.33,41.026,-8.453111
1615127507,1.11,0.11,353.73,61.64,21.43,-3.58,-0.58,-16.51,-64.24,-0.00,-0.00,-0.00,-0.00,354.87,41.026,-8.453111
1615127509,1.11,0.11,353.72,58.70,21.43,-3.59,-0.60,-16.51,-60.07,-0.00,-0.00,-0.00,-0.00,353.99,41.026,-8.453111
1615127510,1.11,0.12,353.73,55.78,21.43,-3.58,-0.61,-16.51,-57.18,-0.00,-0.00,-0.00,-0.00,355.35,41.026,-8.453111
1615127512,1.12,0.12,353.77,63.28,21.43,-3.61,-0.64,-16.55,-65.60,-0.00,-0.00,-0.00,-0.00,354.36,41.026,-8.453111
1615127514,1.11,0.13,353.80,66.01,21.43,-3.57,-0.68,-16.55,-60.88,-0.00,-0.00,-0.00,-0.00,355.03,41.026,-8.453111
1615127516,1.10,0.14,353.78,58.72,21.42,-3.57,-0.66,-16.54,-59.40,-0.00,-0.00,-0.00,-0.00,355.34,41.026,-8.453111
1615127518,1.11,0.13,353.76,64.83,21.43,-3.61,-0.64,-16.53,-65.09,-0.00,-0.00,-0.00,-0.00,353.88,41.026,-8.453111
1615127519,1.12,0.12,353.78,61.40,21.42,-3.62,-0.64,-16.55,-61.57,-0.00,-0.00,-0.00,-0.00,354.87,41.026,-8.453111
1615127521,1.12,0.13,353.79,71.08,21.42,-3.61,-0.65,-16.48,-69.21,-0.00,-0.00,-0.00,-0.00,355.06,41.026,-8.453111
1615127523,1.12,0.13,353.64,74.07,21.43,-3.62,-0.64,-16.47,-72.51,-0.00,-0.00,-0.00,-0.00,355.04,41.026,-8.453111
1615127525,1.11,0.13,353.65,70.11,21.43,-3.61,-0.63,-16.41,-69.32,-0.00,-0.00,-0.00,-0.00,354.51,41.026,-8.453111
1615127526,1.11,0.13,353.55,67.87,21.42,-3.60,-0.64,-16.43,-65.45,-0.00,-0.00,-0.00,-0.00,354.87,41.026,-8.453111
1615127528,1.11,0.13,353.59,70.33,21.43,-3.58,-0.66,-16.47,-68.25,-0.00,-0.00,-0.00,-0.00,355.21,41.026,-8.453111
1615127530,1.11,0.14,353.67,67.63,21.42,-3.59,-0.67,-16.49,-69.57,-0.00,-0.00,-0.00,-0.00,355.04,41.026,-8.453111
1615127532,1.11,0.13,353.67,71.60,21.42,-3.58,-0.67,-16.48,-72.69,-0.00,-0.00,-0.00,-0.00,354.60,41.026,-8.453111
1615127534,1.11,0.14,353.67,69.83,21.43,-3.57,-0.67,-16.48,-73.67,-0.00,-0.00,-0.00,-0.00,355.04,41.026,-8.453111
1615127535,1.10,0.14,353.66,83.05,21.42,-3.57,-0.71,-16.48,-84.59,-0.00,-0.00,-0.00,-0.00,355.23,41.026,-8.453111
1615127537,1.10,0.15,353.66,70.97,21.42,-3.58,-0.71,-16.48,-70.87,-0.00,-0.00,-0.00,-0.00,354.72,41.026,-8.453111
1615127539,1.10,0.15,353.69,72.90,21.42,-3.58,-0.71,-16.44,-68.88,-0.00,-0.00,-0.00,-0.00,354.13,41.026,-8.453111
1615127541,1.11,0.14,353.61,67.44,21.42,-3.60,-0.68,-16.46,-66.70,-0.00,-0.00,-0.00,-0.00,355.05,41.026,-8.453111
1615127543,1.11,0.14,353.63,66.35,21.42,-3.61,-0.68,-16.47,-67.15,-0.00,-0.00,-0.00,-0.00,353.85,41.026,-8.453111
1615127544,1.12,0.14,353.65,74.30,21.41,-3.60,-0.68,-16.48,-76.18,-0.00,-0.00,-0.00,-0.00,355.81,41.026,-8.453111
1615127546,1.12,0.15,353.71,77.54,21.41,-3.61,-0.67,-16.50,-77.30,-0.00,-0.00,-0.00,-0.00,354.50,41.026,-8.453111
1615127548,1.12,0.14,353.72,81.76,21.41,-3.64,-0.67,-16.51,-77.65,-0.00,-0.00,-0.00,-0.00,355.20,41.026,-8.453111
1615127550,1.12,0.14,353.73,70.66,21.41,-3.64,-0.67,-16.51,-66.05,-0.00,-0.00,-0.00,-0.00,355.04,41.026,-8.453111
1615127551,1.13,0.15,353.74,55.02,21.40,-3.64,-0.72,-16.52,-54.72,-0.00,-0.00,-0.00,-0.00,354.44,41.026,-8.453111
1615127553,1.13,0.16,353.74,47.00,21.40,-3.68,-0.74,-16.52,-44.51,-0.00,-0.00,-0.00,-0.00,354.38,41.026,-8.453111
1615127555,1.14,0.16,353.77,41.54,21.41,-3.69,-0.73,-16.54,-43.97,-0.00,-0.00,-0.00,-0.00,355.82,41.026,-8.453111
1615127557,1.15,0.15,353.78,46.46,21.41,-3.68,-0.73,-16.53,-48.76,-0.00,-0.00,-0.00,-0.00,355.07,41.026,-8.453111
1615127559,1.14,0.15,353.76,49.11,21.41,-3.67,-0.72,-16.53,-49.91,-0.00,-0.00,-0.00,-0.00,354.91,41.026,-8.453111
1615127560,1.14,0.16,353.75,52.99,21.41,-3.68,-0.73,-16.53,-54.88,-0.00,-0.00,-0.00,-0.00,353.98,41.026,-8.453111
1615127562,1.14,0.16,353.75,64.35,21.41,-3.69,-0.74,-16.52,-64.09,-0.00,-0.00,-0.00,-0.00,354.41,41.026,-8.453111
1615127564,1.14,0.16,353.74,67.73,21.41,-3.70,-0.71,-16.54,-67.44,-0.00,-0.00,-0.00,-0.00,355.07,41.026,-8.453111
1615127566,1.14,0.15,353.81,62.56,21.41,-3.69,-0.72,-16.55,-59.08,-0.00,-0.00,-0.00,-0.00,354.65,41.026,-8.453111
1615127568,1.14,0.15,353.80,62.66,21.42,-3.66,-0.73,-16.55,-63.50,-0.00,-0.00,-0.00,-0.00,355.23,41.026,-8.453111
1615127569,1.13,0.15,353.79,57.20,21.42,-3.64,-0.71,-16.54,-57.53,-0.00,-0.00,-0.00,-0.00,354.01,41.026,-8.453111
1615127571,1.12,0.15,353.78,61.54,21.41,-3.61,-0.69,-16.54,-62.68,-0.00,-0.00,-0.00,-0.00,355.05,41.026,-8.453111
1615127573,1.12,0.14,353.63,55.81,21.41,-3.61,-0.68,-16.47,-56.08,-0.00,-0.00,-0.00,-0.00,354.53,41.026,-8.453111
1615127575,1.12,0.14,353.52,61.97,21.41,-3.62,-0.67,-16.42,-64.37,-0.00,-0.00,-0.00,-0.00,354.69,41.026,-8.453111
1615127576,1.12,0.13,353.55,64.61,21.41,-3.61,-0.67,-16.43,-65.41,-0.00,-0.00,-0.00,-0.00,354.87,41.026,-8.453111
1615127578,1.12,0.13,353.58,67.54,21.41,-3.61,-0.66,-16.44,-68.94,-0.00,-0.00,-0.00,-0.00,354.15,41.026,-8.453111
1615127580,1.12,0.13,353.60,70.05,21.40,-3.64,-0.68,-16.45,-71.84,-0.00,-0.00,-0.00,-0.00,355.37,41.026,-8.453111
1615127582,1.12,0.13,353.63,71.96,21.41,-3.65,-0.66,-16.47,-70.66,-0.00,-0.00,-0.00,-0.00,354.62,41.026,-8.453111
1615127584,1.13,0.14,353.65,73.57,21.41,-3.63,-0.68,-16.48,-75.02,-0.00,-0.00,-0.00,-0.00,355.06,41.026,-8.453111
1615127585,1.13,0.14,353.67,78.52,21.41,-3.66,-0.70,-16.50,-78.24,-0.00,-0.00,-0.00,-0.00,354.91,41.026,-8.453111
1615127587,1.14,0.15,353.70,76.25,21.41,-3.73,-0.73,-16.50,-78.60,-0.00,-0.00,-0.00,-0.00,354.35,41.026,-8.453111
1615127589,1.15,0.16,353.71,78.03,21.41,-3.70,-0.76,-16.51,-80.42,-0.00,-0.00,-0.00,-0.00,354.12,41.026,-8.453111
1615127591,1.14,0.17,353.73,80.53,21.42,-3.66,-0.73,-16.52,-80.09,-0.00,-0.00,-0.00,-0.00,355.07,41.026,-8.453111
1615127593,1.14,0.16,353.74,75.02,21.40,-3.69,-0.73,-16.52,-72.84,-0.00,-0.00,-0.00,-0.00,354.24,41.026,-8.453111
1615127594,1.15,0.15,353.74,72.07,21.41,-3.71,-0.71,-16.52,-71.27,-0.00,-0.00,-0.00,-0.00,355.07,41.026,-8.453111
1615127596,1.15,0.15,353.74,68.86,21.41,-3.71,-0.72,-16.52,-70.88,-0.00,-0.00,-0.00,-0.00,354.27,41.026,-8.453111
1615127598,1.15,0.15,353.62,66.38,21.42,-3.71,-0.73,-16.46,-65.43,-0.00,-0.00,-0.00,-0.00,355.08,41.026,-8.453111
1615127600,1.14,0.15,353.64,64.98,21.42,-3.69,-0.71,-16.47,-65.43,-0.00,-0.00,-0.00,-0.00,354.21,41.026,-8.453111
1615127601,1.15,0.14,353.54,66.53,21.42,-3.71,-0.69,-16.43,-66.33,-0.00,-0.00,-0.00,-0.00,354.08,41.026,-8.453111
1615127603,1.15,0.15,353.57,65.92,21.42,-3.70,-0.70,-16.44,-66.23,-0.00,-0.00,-0.00,-0.00,354.54,41.026,-8.453111
1615127605,1.14,0.15,353.60,62.68,21.42,-3.66,-0.72,-16.45,-64.50,-0.00,-0.00,-0.00,-0.00,355.22,41.026,-8.453111
1615127607,1.13,0.16,353.62,62.30,21.42,-3.65,-0.76,-16.46,-63.83,-0.00,-0.00,-0.00,-0.00,354.55,41.026,-8.453111
1615127609,1.13,0.17,353.62,61.20,21.42,-3.67,-0.77,-16.46,-59.10,-0.00,-0.00,-0.00,-0.00,355.05,41.026,-8.453111
1615127610,1.13,0.17,353.63,56.56,21.42,-3.66,-0.78,-16.47,-55.17,-0.00,-0.00,-0.00,-0.00,354.64,41.026,-8.453111
1615127612,1.12,0.17,353.66,63.18,21.43,-3.61,-0.77,-16.48,-62.82,-0.00,-0.00,-0.00,-0.00,354.89,41.026,-8.453111
1615127614,1.12,0.16,353.66,62.72,21.43,-3.62,-0.73,-16.48,-63.91,-0.00,-0.00,-0.00,-0.00,354.39,41.026,-8.453111
1615127616,1.12,0.16,353.71,57.99,21.42,-3.60,-0.74,-16.52,-59.96,-0.00,-0.00,-0.00,-0.00,356.13,41.026,-8.453111
1615127618,1.12,0.16,353.76,62.94,21.42,-3.63,-0.74,-16.54,-64.11,-0.00,-0.00,-0.00,-0.00,354.18,41.026,-8.453111
1615127619,1.12,0.15,353.77,64.22,21.41,-3.62,-0.71,-16.54,-63.71,-0.00,-0.00,-0.00,-0.00,354.29,41.026,-8.453111
1615127621,1.12,0.14,353.78,61.23,21.42,-3.63,-0.66,-16.54,-57.07,-0.00,-0.00,-0.00,-0.00,355.22,41.026,-8.453111
1615127623,1.12,0.14,353.77,59.50,21.41,-3.63,-0.66,-16.53,-59.20,-0.00,-0.00,-0.00,-0.00,353.86,41.026,-8.453111
1615127625,1.13,0.14,353.78,60.20,21.41,-3.63,-0.66,-16.54,-58.41,-0.00,-0.00,-0.00,-0.00,354.85,41.026,-8.453111
1615127626,1.12,0.13,353.78,56.17,21.42,-3.65,-0.66,-16.54,-55.87,-0.00,-0.00,-0.00,-0.00,354.32,41.026,-8.453111
1615127628,1.12,0.14,353.76,57.75,21.41,-3.65,-0.66,-16.52,-57.83,-0.00,-0.00,-0.00,-0.00,354.90,41.026,-8.453111
1615127630,1.13,0.13,353.74,61.26,21.41,-3.67,-0.67,-16.52,-61.23,-0.00,-0.00,-0.00,-0.00,354.90,41.026,-8.453111
1615127632,1.14,0.14,353.72,65.43,21.41,-3.66,-0.66,-16.50,-65.78,-0.00,-0.00,-0.00,-0.00,354.23,41.026,-8.453111
1615127634,1.13,0.13,353.71,76.26,21.42,-3.64,-0.68,-16.51,-76.07,-0.00,-0.00,-0.00,-0.00,355.20,41.026,-8.453111
1615127635,1.12,0.14,353.63,80.20,21.41,-3.59,-0.66,-16.47,-79.32,-0.00,-0.00,-0.00,-0.00,354.72,41.026,-8.453111
1615127637,1.12,0.14,353.67,83.09,21.42,-3.61,-0.68,-16.48,-84.98,-0.00,-0.00,-0.00,-0.00,354.37,41.026,-8.453111
1615127639,1.12,0.14,353.66,83.06,21.42,-3.61,-0.68,-16.48,-83.93,-0.00,-0.00,-0.00,-0.00,355.12,41.026,-8.453111
1615127641,1.13,0.15,353.66,82.96,21.42,-3.63,-0.72,-16.48,-82.64,-0.00,-0.00,-0.00,-0.00,354.23,41.026,-8.453111
1615127643,1.12,0.16,353.66,78.71,21.42,-3.62,-0.72,-16.48,-79.97,-0.00,-0.00,-0.00,-0.00,355.12,41.026,-8.453111
1615127644,1.12,0.15,353.67,83.10,21.44,-3.61,-0.71,-16.50,-80.61,-0.00,-0.00,-0.00,-0.00,355.78,41.026,-8.453111
1615127646,1.11,0.16,353.74,79.48,21.43,-3.60,-0.75,-16.52,-81.30,-0.00,-0.00,-0.00,-0.00,354.16,41.026,-8.453111
1615127648,1.12,0.16,353.75,80.56,21.42,-3.62,-0.74,-16.53,-81.35,-0.00,-0.00,-0.00,-0.00,353.86,41.026,-8.453111
1615127650,1.12,0.16,353.73,74.33,21.41,-3.63,-0.74,-16.51,-74.38,-0.00,-0.00,-0.00,-0.00,355.20,41.026,-8.453111
1615127652,1.12,0.16,353.73,74.23,21.41,-3.62,-0.76,-16.51,-74.58,-0.00,-0.00,-0.00,-0.00,353.99,41.026,-8.453111
1615127653,1.12,0.17,353.71,72.78,21.41,-3.62,-0.77,-16.50,-69.13,-0.00,-0.00,-0.00,-0.00,353.99,41.026,-8.453111
1615127655,1.12,0.16,353.70,71.39,21.41,-3.62,-0.72,-16.50,-70.26,-0.00,-0.00,-0.00,-0.00,354.90,41.026,-8.453111
1615127657,1.12,0.15,353.76,69.23,21.42,-3.62,-0.68,-16.53,-68.54,-0.00,-0.00,-0.00,-0.00,355.42,41.026,-8.453111
1615127659,1.12,0.15,353.76,66.45,21.42,-3.63,-0.70,-16.53,-67.78,-0.00,-0.00,-0.00,-0.00,355.04,41.026,-8.453111
1615127660,1.13,0.15,353.75,73.98,21.42,-3.65,-0.72,-16.52,-74.85,-0.00,-0.00,-0.00,-0.00,353.82,41.026,-8.453111
1615127662,1.13,0.15,353.76,77.52,21.42,-3.66,-0.70,-16.52,-77.07,-0.00,-0.00,-0.00,-0.00,354.90,41.026,-8.453111
1615127664,1.13,0.15,353.75,81.83,21.43,-3.66,-0.72,-16.54,-80.56,-0.00,-0.00,-0.00,-0.00,355.07,41.026,-8.453111
1615127666,1.13,0.16,353.80,83.32,21.43,-3.66,-0.73,-16.55,-83.58,-0.00,-0.00,-0.00,-0.00,354.75,41.026,-8.453111
1615127668,1.12,0.15,353.78,81.33,21.44,-3.64,-0.72,-16.53,-82.73,-0.00,-0.00,-0.00,-0.00,354.11,41.026,-8.453111
1615127669,1.12,0.16,353.76,76.52,21.45,-3.64,-0.73,-16.53,-76.74,-0.00,-0.00,-0.00,-0.00,354.64,41.026,-8.453111
1615127671,1.13,0.15,353.75,75.59,21.45,-3.64,-0.73,-16.52,-75.91,-0.00,-0.00,-0.00,-0.00,354.69,41.026,-8.453111
1615127673,1.12,0.16,353.73,77.94,21.46,-3.61,-0.73,-16.51,-77.30,-0.00,-0.00,-0.00,-0.00,355.05,41.026,-8.453111
1615127675,1.11,0.15,353.73,73.13,21.47,-3.60,-0.70,-16.51,-72.35,-0.00,-0.00,-0.00,-0.00,354.19,41.026,-8.453111
1615127677,1.12,0.15,353.71,69.96,21.47,-3.63,-0.74,-16.51,-69.77,-0.00,-0.00,-0.00,-0.00,355.20,41.026,-8.453111
1615127678,1.12,0.17,353.73,72.07,21.47,-3.61,-0.78,-16.51,-73.16,-0.00,-0.00,-0.00,-0.00,354.61,41.026,-8.453111
1615127680,1.12,0.18,353.73,68.50,21.46,-3.63,-0.80,-16.52,-69.03,-0.00,-0.00,-0.00,-0.00,355.21,41.026,-8.453111
1615127682,1.12,0.18,353.75,69.34,21.45,-3.64,-0.81,-16.52,-72.75,-0.00,-0.00,-0.00,-0.00,355.06,41.026,-8.453111
1615127684,1.13,0.19,353.78,70.15,21.45,-3.66,-0.82,-16.54,-69.79,-0.00,-0.00,-0.00,-0.00,354.59,41.026,-8.453111
1615127685,1.12,0.18,353.80,71.93,21.45,-3.63,-0.81,-16.55,-70.61,-0.00,-0.00,-0.00,-0.00,355.06,41.026,-8.453111
1615127687,1.13,0.19,353.79,69.32,21.44,-3.67,-0.80,-16.55,-71.77,-0.00,-0.00,-0.00,-0.00,354.58,41.026,-8.453111
1615127689,1.14,0.19,353.79,72.70,21.44,-3.68,-0.84,-16.54,-73.88,-0.00,-0.00,-0.00,-0.00,354.90,41.026,-8.453111
1615127691,1.14,0.20,353.79,74.03,21.44,-3.70,-0.84,-16.55,-73.51,-0.00,-0.00,-0.00,-0.00,355.87,41.026,-8.453111
1615127693,1.14,0.19,353.78,70.40,21.43,-3.67,-0.83,-16.53,-67.26,-0.00,-0.00,-0.00,-0.00,354.24,41.026,-8.453111
1615127694,1.14,0.18,353.77,65.15,21.42,-3.66,-0.78,-16.53,-68.54,-0.00,-0.00,-0.00,-0.00,354.92,41.026,-8.453111
1615127696,1.13,0.16,353.78,72.56,21.42,-3.64,-0.74,-16.53,-73.05,-0.00,-0.00,-0.00,-0.00,354.58,41.026,-8.453111
1615127698,1.13,0.16,353.77,74.84,21.43,-3.66,-0.74,-16.54,-74.03,-0.00,-0.00,-0.00,-0.00,354.89,41.026,-8.453111
1615127700,1.12,0.15,353.81,77.04,21.44,-3.65,-0.74,-16.55,-73.85,-0.00,-0.00,-0.00,-0.00,354.21,41.026,-8.453111
1615127701,1.14,0.16,353.77,80.22,21.44,-3.67,-0.75,-16.54,-83.64,-0.00,-0.00,-0.00,-0.00,355.06,41.026,-8.453111
1615127703,1.14,0.16,353.77,83.80,21.45,-3.67,-0.74,-16.53,-82.68,-0.00,-0.00,-0.00,-0.00,354.18,41.026,-8.453111
1615127705,1.14,0.17,353.79,75.49,21.46,-3.68,-0.78,-16.55,-77.04,-0.00,-0.00,-0.00,-0.00,355.99,41.026,-8.453111
1615127707,1.14,0.18,353.81,77.62,21.46,-3.69,-0.80,-16.56,-77.74,-0.00,-0.00,-0.00,-0.00,355.06,41.026,-8.453111
1615127709,1.13,0.17,353.81,81.32,21.46,-3.65,-0.78,-16.55,-80.69,-0.00,-0.00,-0.00,-0.00,353.97,41.026,-8.453111
1615127710,1.13,0.17,353.77,80.78,21.47,-3.66,-0.76,-16.53,-80.56,-0.00,-0.00,-0.00,-0.00,355.22,41.026,-8.453111
1615127712,1.13,0.18,353.77,77.44,21.48,-3.66,-0.81,-16.54,-79.25,-0.00,-0.00,-0.00,-0.00,355.22,41.026,-8.453111
1615127714,1.14,0.19,353.79,78.73,21.48,-3.71,-0.84,-16.54,-80.08,-0.00,-0.00,-0.00,-0.00,355.05,41.026,-8.453111
1615127716,1.15,0.20,353.84,82.87,21.49,-3.71,-0.86,-16.58,-82.05,-0.00,-0.00,-0.00,-0.00,355.25,41.026,-8.453111
1615127718,1.16,0.19,353.84,82.48,21.49,-3.74,-0.84,-16.57,-84.51,-0.00,-0.00,-0.00,-0.00,354.17,41.026,-8.453111
1615127719,1.17,0.19,353.83,81.86,21.50,-3.76,-0.85,-16.56,-82.65,-0.00,-0.00,-0.00,-0.00,354.92,41.026,-8.453111
1615127721,1.16,0.19,353.80,82.92,21.51,-3.76,-0.82,-16.55,-84.71,-0.00,-0.00,-0.00,-0.00,354.78,41.026,-8.453111
1615127723,1.16,0.18,353.80,88.03,21.51,-3.71,-0.78,-16.55,-86.64,-0.00,-0.00,-0.00,-0.00,354.53,41.026,-8.453111
1615127725,1.14,0.19,353.80,88.50,21.52,-3.70,-0.82,-16.56,-90.93,-0.00,-0.00,-0.00,-0.00,354.98,41.026,-8.453111
1615127727,1.16,0.19,353.84,88.35,21.53,-3.75,-0.86,-16.57,-88.08,-0.00,-0.00,-0.00,-0.00,355.84,41.026,-8.453111
1615127728,1.17,0.20,353.84,90.82,21.54,-3.77,-0.85,-16.57,-89.62,-0.00,-0.00,-0.00,-0.00,354.67,41.026,-8.453111
1615127730,1.16,0.21,353.82,91.55,21.54,-3.77,-0.88,-16.55,-89.38,-0.00,-0.00,-0.00,-0.00,354.58,41.026,-8.453111
1615127732,1.17,0.20,353.78,89.60,21.54,-3.76,-0.85,-16.48,-90.06,-0.00,-0.00,-0.00,-0.00,354.11,41.026,-8.453111
1615127734,1.17,0.19,353.67,91.90,21.54,-3.78,-0.83,-16.49,-93.35,-0.00,-0.00,-0.00,-0.00,355.32,41.026,-8.453111
1615127735,1.18,0.20,353.73,93.86,21.54,-3.80,-0.86,-16.51,-94.13,-0.00,-0.00,-0.00,-0.00,355.10,41.026,-8.453111
1615127737,1.17,0.20,353.72,89.71,21.55,-3.78,-0.85,-16.52,-90.52,-0.00,-0.00,-0.00,-0.00,354.12,41.026,-8.453111
1615127739,1.17,0.20,353.73,89.61,21.54,-3.77,-0.85,-16.45,-89.28,-0.00,-0.00,-0.00,-0.00,353.91,41.026,-8.453111
1615127741,1.17,0.21,353.61,92.65,21.54,-3.77,-0.87,-16.46,-95.16,-0.00,-0.00,-0.00,-0.00,355.26,41.026,-8.453111
1615127743,1.17,0.21,353.63,88.20,21.54,-3.78,-0.88,-16.46,-92.29,-0.00,-0.00,-0.00,-0.00,354.27,41.026,-8.453111
1615127744,1.17,0.19,353.64,94.25,21.54,-3.76,-0.85,-16.48,-94.57,-0.00,-0.00,-0.00,-0.00,354.05,41.026,-8.453111
1615127746,1.16,0.20,353.70,92.16,21.54,-3.75,-0.84,-16.50,-93.81,-0.00,-0.00,-0.00,-0.00,354.94,41.026,-8.453111
1615127748,1.16,0.20,353.69,96.85,21.54,-3.75,-0.85,-16.49,-96.53,-0.00,-0.00,-0.00,-0.00,354.41,41.026,-8.453111
1615127750,1.18,0.19,353.70,96.07,21.53,-3.78,-0.82,-16.51,-94.18,-0.00,-0.00,-0.00,-0.00,355.43,41.026,-8.453111
1615127751,1.17,0.19,353.72,95.19,21.53,-3.76,-0.85,-16.51,-92.72,-0.00,-0.00,-0.00,-0.00,354.11,41.026,-8.453111
1615127753,1.17,0.20,353.71,88.92,21.53,-3.77,-0.85,-16.51,-87.57,-0.00,-0.00,-0.00,-0.00,355.24,41.026,-8.453111
1615127755,1.18,0.19,353.75,86.61,21.52,-3.80,-0.83,-16.54,-84.10,-0.00,-0.00,-0.00,-0.00,355.24,41.026,-8.453111
1615127757,1.18,0.19,353.78,85.75,21.51,-3.80,-0.83,-16.54,-84.95,-0.00,-0.00,-0.00,-0.00,355.10,41.026,-8.453111
1615127759,1.18,0.19,353.78,85.17,21.51,-3.80,-0.81,-16.54,-85.51,-0.00,-0.00,-0.00,-0.00,354.42,41.026,-8.453111
1615127760,1.18,0.18,353.77,87.23,21.51,-3.81,-0.79,-16.53,-89.00,-0.00,-0.00,-0.00,-0.00,354.27,41.026,-8.453111
1615127762,1.18,0.17,353.78,96.36,21.50,-3.78,-0.79,-16.54,-97.88,-0.00,-0.00,-0.00,-0.00,354.96,41.026,-8.453111
1615127764,1.16,0.18,353.78,104.10,21.50,-3.73,-0.79,-16.54,-105.45,-0.00,-0.00,-0.00,-0.00,354.01,41.026,-8.453111
1615127766,1.16,0.18,353.83,104.05,21.50,-3.73,-0.82,-16.56,-103.79,-0.00,-0.00,-0.00,-0.00,354.48,41.026,-8.453111
1615127768,1.16,0.19,353.81,100.08,21.50,-3.75,-0.81,-16.56,-99.18,-0.00,-0.00,-0.00,-0.00,354.74,41.026,-8.453111
1615127769,1.17,0.17,353.80,94.91,21.49,-3.76,-0.77,-16.55,-93.06,-0.00,-0.00,-0.00,-0.00,354.45,41.026,-8.453111
1615127771,1.17,0.17,353.79,88.34,21.50,-3.78,-0.77,-16.54,-87.04,-0.00,-0.00,-0.00,-0.00,354.05,41.026,-8.453111
1615127773,1.17,0.17,353.78,86.06,21.50,-3.77,-0.75,-16.54,-88.57,-0.00,-0.00,-0.00,-0.00,355.09,41.026,-8.453111
1615127775,1.16,0.17,353.78,85.57,21.50,-3.74,-0.78,-16.55,-82.60,-0.00,-0.00,-0.00,-0.00,354.99,41.026,-8.453111
1615127776,1.16,0.17,353.83,77.69,21.50,-3.78,-0.76,-16.56,-79.64,-0.00,-0.00,-0.00,-0.00,354.93,41.026,-8.453111
1615127778,1.17,0.17,353.82,82.91,21.51,-3.78,-0.79,-16.55,-86.64,-0.00,-0.00,-0.00,-0.00,354.38,41.026,-8.453111
1615127780,1.17,0.17,353.78,88.79,21.52,-3.78,-0.76,-16.54,-87.57,-0.00,-0.00,-0.00,-0.00,355.10,41.026,-8.453111
1615127782,1.17,0.18,353.77,90.12,21.53,-3.78,-0.78,-16.53,-89.50,-0.00,-0.00,-0.00,-0.00,355.10,41.026,-8.453111
1615127784,1.16,0.18,353.77,89.25,21.53,-3.74,-0.75,-16.54,-88.67,-0.00,-0.00,-0.00,-0.00,355.08,41.026,-8.453111
1615127785,1.17,0.17,353.81,90.42,21.54,-3.74,-0.77,-16.50,-90.09,-0.00,-0.00,-0.00,-0.00,355.84,41.026,-8.453111
1615127787,1.16,0.17,353.71,83.78,21.55,-3.73,-0.78,-16.51,-84.00,-0.00,-0.00,-0.00,-0.00,353.78,41.026,-8.453111
1615127789,1.16,0.16,353.71,87.72,21.55,-3.74,-0.76,-16.50,-87.99,-0.00,-0.00,-0.00,-0.00,355.09,41.026,-8.453111
1615127791,1.17,0.17,353.69,89.53,21.55,-3.76,-0.78,-16.49,-88.24,-0.00,-0.00,-0.00,-0.00,354.94,41.026,-8.453111
1615127793,1.17,0.18,353.69,83.93,21.55,-3.78,-0.81,-16.49,-84.24,-0.00,-0.00,-0.00,-0.00,354.27,41.026,-8.453111
1615127794,1.18,0.19,353.68,84.73,21.55,-3.79,-0.81,-16.51,-87.16,-0.00,-0.00,-0.00,-0.00,355.27,41.026,-8.453111
1615127796,1.17,0.18,353.75,84.81,21.55,-3.76,-0.82,-16.52,-85.42,-0.00,-0.00,-0.00,-0.00,354.78,41.026,-8.453111
1615127798,1.17,0.19,353.74,87.70,21.56,-3.77,-0.86,-16.52,-90.12,-0.00,-0.00,-0.00,-0.00,355.10,41.026,-8.453111
1615127800,1.17,0.20,353.74,92.76,21.56,-3.73,-0.89,-16.52,-94.19,-0.00,-0.00,-0.00,-0.00,353.87,41.026,-8.453111
1615127801,1.15,0.21,353.72,84.65,21.56,-3.71,-0.90,-16.51,-85.44,-0.00,-0.00,-0.00,-0.00,355.25,41.026,-8.453111
1615127803,1.15,0.22,353.73,91.57,21.56,-3.69,-0.92,-16.51,-93.49,-0.00,-0.00,-0.00,-0.00,354.03,41.026,-8.453111
1615127805,1.15,0.23,353.76,101.91,21.56,-3.70,-0.93,-16.54,-102.67,-0.00,-0.00,-0.00,-0.00,355.05,41.026,-8.453111
1615127807,1.14,0.22,353.78,94.95,21.56,-3.67,-0.93,-16.48,-94.07,-0.00,-0.00,-0.00,-0.00,354.55,41.026,-8.453111
1615127809,1.14,0.22,353.65,88.23,21.56,-3.69,-0.90,-16.48,-90.10,-0.00,-0.00,-0.00,-0.00,354.01,41.026,-8.453111
1615127810,1.14,0.21,353.67,91.62,21.56,-3.69,-0.90,-16.48,-92.85,-0.00,-0.00,-0.00,-0.00,354.91,41.026,-8.453111
1615127812,1.15,0.21,353.67,97.50,21.56,-3.73,-0.92,-16.48,-98.73,-0.00,-0.00,-0.00,-0.00,354.01,41.026,-8.453111
1615127814,1.16,0.22,353.67,100.34,21.56,-3.76,-0.92,-16.49,-102.25,-0.00,-0.00,-0.00,-0.00,354.94,41.026,-8.453111
1615127816,1.18,0.21,353.72,102.94,21.56,-3.79,-0.92,-16.52,-102.11,-0.00,-0.00,-0.00,-0.00,356.02,41.026,-8.453111
1615127817,1.17,0.22,353.76,103.04,21.56,-78.79,74.57,-16.53,359.41,-25.00,25.00,-0.00,455.20,354.15,41.026,-8.453111
1615127819,1.17,0.22,353.76,104.34,21.57,-3.75,-0.92,-16.53,355.61,-0.00,-0.00,-0.00,462.39,355.11,41.026,-8.453111
1615127821,1.16,0.21,353.77,109.66,21.56,-3.72,-0.91,-16.53,889.41,-0.00,-0.00,-0.00,1000.00,355.09,41.026,-8.453111
1615127823,1.15,0.22,353.75,113.90,21.56,-3.72,-0.93,-16.53,884.68,-0.00,-0.00,-0.00,1000.00,355.08,41.026,-8.453111
1615127824,1.15,0.22,353.76,108.28,21.56,-3.73,-0.93,-16.55,894.13,-0.00,-0.00,-0.00,1000.00,355.08,41.026,-8.453111
1615127826,1.15,0.22,353.82,109.17,21.55,-3.70,-0.90,-16.55,892.98,-0.00,-0.00,-0.00,1000.00,354.92,41.026,-8.453111
1615127828,1.16,0.21,353.80,111.27,21.55,-3.74,-0.91,-16.55,884.69,-0.00,-0.00,-0.00,1000.00,355.09,41.026,-8.453111
1615127830,1.16,0.22,353.81,114.70,21.56,-3.75,-0.93,-16.56,885.58,-0.00,-0.00,-0.00,1000.00,355.10,41.026,-8.453111
1615127832,1.16,0.23,353.81,109.51,21.56,-3.74,-0.96,-16.56,895.54,-0.00,-0.00,-0.00,1000.00,354.70,41.026,-8.453111
1615127833,1.16,0.23,353.69,98.43,21.57,-3.68,-0.97,-16.50,903.85,-0.00,-0.00,-0.00,1000.00,354.20,41.026,-8.453111
1615127835,1.13,0.24,353.74,92.23,21.57,-3.69,-0.98,-16.52,910.15,-0.00,-0.00,-0.00,1000.00,355.98,41.026,-8.453111
1615127837,1.15,0.24,353.78,85.77,21.57,-3.72,-0.97,-16.54,913.32,-0.00,-0.00,-0.00,1000.00,355.08,41.026,-8.453111
1615127839,1.16,0.24,353.78,83.89,21.57,-3.73,-1.00,-16.48,917.95,-0.00,-0.00,-0.00,1000.00,354.76,41.026,-8.453111
1615127840,1.16,0.25,353.70,79.77,21.57,-3.71,-1.02,-16.50,918.19,-0.00,-0.00,-0.00,1000.00,355.09,41.026,-8.453111
1615127842,1.15,0.26,353.60,79.58,21.58,-3.72,-1.03,-16.46,919.98,-0.00,-0.00,-0.00,1000.00,355.08,41.026,-8.453111
1615127844,1.14,0.25,353.64,87.31,21.58,-2.72,-0.30,-16.48,914.78,3.88,2.48,-0.00,1000.00,354.46,41.026,-8.453111
1615127846,1.14,0.25,353.70,86.88,21.57,-3.69,-1.01,-16.52,911.69,-0.00,-0.00,-0.00,1000.00,354.84,41.026,-8.453111
1615127847,1.15,0.25,353.73,86.22,21.56,-3.72,-1.03,-16.51,911.87,-0.00,-0.00,-0.00,1000.00,354.93,41.026,-8.453111
1615127849,1.15,0.26,353.72,92.32,21.57,-3.70,-1.04,-16.52,907.70,-0.00,-0.00,-0.00,1000.00,355.09,41.026,-8.453111
1615127851,1.14,0.26,353.74,95.12,21.58,-3.70,-1.04,-14.27,563.59,-0.00,-0.00,-2.78,894.40,355.23,41.026,-8.453111
1615127853,1.15,0.25,353.75,94.06,21.58,-3.69,-1.01,-16.52,907.82,-0.00,-0.00,-0.00,1000.00,354.03,41.026,-8.453111
1615127854,1.15,0.25,353.75,98.08,21.57,-3.70,-1.02,-16.53,902.56,-0.00,-0.00,-0.00,1000.00,354.03,41.026,-8.453111
1615127856,1.15,0.25,353.80,99.27,21.56,-3.70,-1.00,-16.55,898.29,-0.00,-0.00,-0.00,1000.00,353.76,41.026,-8.453111
1615127858,1.15,0.24,353.78,99.84,21.57,-3.70,-0.75,-16.47,901.06,-0.00,-0.00,-0.00,1000.00,354.47,41.026,-8.453111
1615127860,1.15,0.24,353.65,99.55,21.56,-3.70,-0.99,-16.48,903.09,-0.00,-0.00,-0.00,1000.00,355.24,41.026,-8.453111
1615127861,1.15,0.24,353.66,94.11,21.56,-3.74,-0.96,-16.42,908.68,-0.00,-0.00,-0.00,1000.00,354.47,41.026,-8.453111
1615127863,1.15,0.24,353.56,90.41,21.56,71.77,-6.01,-16.43,909.51,25.00,-1.63,-0.00,1000.00,354.23,41.026,-8.453111
1615127865,1.15,0.23,353.46,87.48,21.55,71.79,-7.91,-16.41,912.81,25.00,-2.24,-0.00,1000.00,355.99,41.026,-8.453111
1615127867,1.15,0.23,353.56,91.47,21.55,71.75,-8.63,-16.43,906.54,25.00,-2.55,-0.00,1000.00,354.92,41.026,-8.453111
1615127869,1.16,0.23,353.57,97.75,21.54,71.76,-2.75,-16.44,902.51,25.00,-0.60,-0.00,1000.00,354.09,41.026,-8.453111
1615127870,1.16,0.23,353.58,99.18,21.54,71.76,-3.09,-16.44,901.14,25.00,-0.72,-0.00,1000.00,354.08,41.026,-8.453111
1615127872,1.16,0.22,353.59,97.06,21.54,71.76,-2.97,-16.44,904.38,25.00,-0.68,-0.00,1000.00,354.77,41.026,-8.453111
1615127874,1.16,0.22,353.59,93.46,21.54,-3.73,-0.93,-16.45,905.65,-0.00,-0.00,-0.00,1000.00,354.92,41.026,-8.453111
1615127876,1.16,0.21,353.65,88.90,21.54,-3.74,-0.89,-16.49,911.76,-0.00,-0.00,-0.00,1000.00,354.71,41.026,-8.453111
1615127878,1.16,0.21,353.69,87.67,21.55,-3.74,-0.89,-16.49,912.14,-0.00,-0.00,-0.00,1000.00,354.78,41.026,-8.453111
1615127879,1.16,0.21,353.70,93.77,21.55,-3.76,-0.87,-16.50,906.58,-0.00,-0.00,-0.00,1000.00,355.09,41.026,-8.453111
1615127881,1.16,0.21,353.70,100.71,21.55,-3.75,-0.88,-16.51,897.30,-0.00,-0.00,-0.00,1000.00,355.09,41.026,-8.453111
1615127883,1.16,0.21,353.71,101.15,21.56,-78.73,1.79,-16.51,900.80,-25.00,0.72,-0.00,1000.00,355.25,41.026,-8.453111
